[{"id":1,"name":"Bombo","country":"UGA","latitude":0.5833,"longitude":32.5333,"population":75000},{"id":2,"name":"Fort Portal","country":"UGA","latitude":0.671,"longitude":30.275,"population":42670},{"id":3,"name":"Potenza","country":"ITA","latitude":40.642,"longitude":15.799,"population":69060},{"id":4,"name":"Campobasso","country":"ITA","latitude":41.563,"longitude":14.656,"population":50762},{"id":5,"name":"Aosta","country":"ITA","latitude":45.737,"longitude":7.315,"population":34062},{"id":6,"name":"Mariehamn","country":"ALD","latitude":60.097,"longitude":19.949,"population":10682},{"id":7,"name":"Ramallah","country":"PSE","latitude":31.90294,"longitude":35.20621,"population":24599},{"id":8,"name":"Vatican City","country":"VAT","latitude":41.90001,"longitude":12.44781,"population":832},{"id":9,"name":"Poitier","country":"FRA","latitude":46.58329,"longitude":0.33328,"population":85960},{"id":10,"name":"Clermont-Ferrand","country":"FRA","latitude":45.77998,"longitude":3.08001,"population":233050},{"id":11,"name":"Besancon","country":"FRA","latitude":47.23,"longitude":6.03001,"population":128426},{"id":12,"name":"Artigas Base","country":"ATA","latitude":-62.17389,"longitude":-58.86386,"population":60},{"id":13,"name":"Chipata","country":"ZMB","latitude":-13.62957,"longitude":32.64001,"population":85963},{"id":14,"name":"Jinja","country":"UGA","latitude":0.44042,"longitude":33.19993,"population":301619},{"id":15,"name":"Arua","country":"UGA","latitude":3.02037,"longitude":30.90002,"population":250000},{"id":16,"name":"Mbale","country":"UGA","latitude":1.09041,"longitude":34.17,"population":402368},{"id":17,"name":"Moroto","country":"UGA","latitude":2.54035,"longitude":34.63999,"population":371},{"id":18,"name":"Masaka","country":"UGA","latitude":-0.32961,"longitude":31.72999,"population":65373},{"id":19,"name":"Mbarara","country":"UGA","latitude":-0.59962,"longitude":30.65,"population":83700},{"id":20,"name":"Otjiwarongo","country":"NAM","latitude":-20.45954,"longitude":16.64001,"population":24815},{"id":21,"name":"Bologna","country":"ITA","latitude":44.50042,"longitude":11.34002,"population":488172},{"id":22,"name":"Cagliari","country":"ITA","latitude":39.2224,"longitude":9.10398,"population":291511},{"id":23,"name":"Catanzaro","country":"ITA","latitude":38.90038,"longitude":16.60001,"population":95251},{"id":24,"name":"Bari","country":"ITA","latitude":41.11422,"longitude":16.87276,"population":500577},{"id":25,"name":"L'Aquila","country":"ITA","latitude":42.3504,"longitude":13.39002,"population":68503},{"id":26,"name":"Ancona","country":"ITA","latitude":43.60037,"longitude":13.49994,"population":100507},{"id":27,"name":"Perugia","country":"ITA","latitude":43.11038,"longitude":12.38998,"population":149125},{"id":28,"name":"Trieste","country":"ITA","latitude":45.65038,"longitude":13.80003,"population":216035},{"id":29,"name":"Trento","country":"ITA","latitude":46.08043,"longitude":11.11998,"population":107808},{"id":30,"name":"Fort-de-France","country":"FRA","latitude":14.61041,"longitude":-61.08003,"population":253995},{"id":31,"name":"Gifu","country":"JPN","latitude":35.42309,"longitude":136.76275,"population":412895},{"id":32,"name":"Saint-Laurent-du-Maroni","country":"FRA","latitude":5.49762,"longitude":-54.03253,"population":24287},{"id":33,"name":"Caen","country":"FRA","latitude":49.18375,"longitude":-0.34999,"population":190099},{"id":34,"name":"Nantes","country":"FRA","latitude":47.21039,"longitude":-1.59002,"population":438537},{"id":35,"name":"Ajaccio","country":"FRA","latitude":41.92706,"longitude":8.72829,"population":54364},{"id":36,"name":"Montpellier","country":"FRA","latitude":43.6104,"longitude":3.86999,"population":327254},{"id":37,"name":"Dijon","country":"FRA","latitude":47.3304,"longitude":5.03002,"population":169946},{"id":38,"name":"Orleans","country":"FRA","latitude":47.90042,"longitude":1.90003,"population":217301},{"id":39,"name":"Rouen","country":"FRA","latitude":49.43041,"longitude":1.07998,"population":532559},{"id":40,"name":"Reims","country":"FRA","latitude":49.25039,"longitude":4.02998,"population":196565},{"id":41,"name":"Amiens","country":"FRA","latitude":49.90038,"longitude":2.3,"population":143086},{"id":42,"name":"Nancy","country":"FRA","latitude":48.68368,"longitude":6.20002,"population":268976},{"id":43,"name":"Basse-terre","country":"FRA","latitude":16.23039,"longitude":-61.43998,"population":307},{"id":44,"name":"Novi Sad","country":"SRB","latitude":45.25038,"longitude":19.84994,"population":225457},{"id":45,"name":"Banja Luka","country":"BIH","latitude":44.7804,"longitude":17.17997,"population":221738},{"id":46,"name":"George Town","country":"GBR","latitude":19.28044,"longitude":-81.32998,"population":4268},{"id":47,"name":"Grand Turk","country":"GBR","latitude":21.46643,"longitude":-71.13598,"population":5801},{"id":48,"name":"Douglas","country":"GBR","latitude":54.15043,"longitude":-4.48002,"population":35854},{"id":49,"name":"San Marino","country":"SMR","latitude":43.91715,"longitude":12.46667,"population":29579},{"id":50,"name":"Willemstad","country":"NLD","latitude":12.20043,"longitude":-69.01998,"population":146813},{"id":51,"name":"Oranjestad","country":"NLD","latitude":12.53038,"longitude":-70.02899,"population":68775},{"id":52,"name":"Vaduz","country":"LIE","latitude":47.13372,"longitude":9.51667,"population":36281},{"id":53,"name":"Capitan Arturo Prat Station","country":"ATA","latitude":-62.49951,"longitude":-59.68332,"population":41},{"id":54,"name":"Marambio Station","country":"ATA","latitude":-64.23289,"longitude":-56.65002,"population":150},{"id":55,"name":"Zucchelli Station","country":"ATA","latitude":-74.61919,"longitude":164.21903,"population":80},{"id":56,"name":"Rothera Station","country":"ATA","latitude":-67.56478,"longitude":-68.12354,"population":130},{"id":57,"name":"Palmer Station","country":"ATA","latitude":-64.76241,"longitude":-64.04688,"population":46},{"id":58,"name":"Base Presidente Montalva","country":"ATA","latitude":-62.18274,"longitude":-58.90765,"population":150},{"id":59,"name":"Carlini Station","country":"ATA","latitude":-62.22414,"longitude":-58.65048,"population":60},{"id":60,"name":"King Sejong Station","country":"ATA","latitude":-62.22485,"longitude":-58.7716,"population":90},{"id":61,"name":"Great Wall Station","country":"ATA","latitude":-62.21632,"longitude":-58.9667,"population":40},{"id":62,"name":"Escudero Base","country":"ATA","latitude":-62.19496,"longitude":-58.95267,"population":20},{"id":63,"name":"Elephant Island","country":"ATA","latitude":-61.99959,"longitude":-57.99998,"population":6},{"id":64,"name":"Scott Base","country":"ATA","latitude":-77.84694,"longitude":166.7491,"population":85},{"id":65,"name":"McMurdo Station","country":"ATA","latitude":-77.73228,"longitude":166.86942,"population":1000},{"id":66,"name":"Zhongshan Station","country":"ATA","latitude":-69.43406,"longitude":76.3393,"population":60},{"id":67,"name":"Vostok","country":"ATA","latitude":-78.46628,"longitude":106.80003,"population":25},{"id":68,"name":"Peter I Island","country":"ATA","latitude":-68.83287,"longitude":90.5,"population":1},{"id":69,"name":"Mirny Station","country":"ATA","latitude":-66.57553,"longitude":93.00629,"population":169},{"id":70,"name":"Mawson Station","country":"ATA","latitude":-67.61452,"longitude":62.875,"population":60},{"id":71,"name":"Davis Station","country":"ATA","latitude":-68.77767,"longitude":78.14074,"population":70},{"id":72,"name":"Concordia Research Station","country":"ATA","latitude":-74.66631,"longitude":124.16704,"population":30},{"id":73,"name":"Casey Station","country":"ATA","latitude":-66.28609,"longitude":110.53621,"population":200},{"id":74,"name":"Amundsen\u0096Scott South Pole Station","country":"ATA","latitude":-89.98289,"longitude":139.26699,"population":200},{"id":75,"name":"Wasa Station","country":"ATA","latitude":-73.04961,"longitude":-13.41671,"population":10},{"id":76,"name":"Troll Station","country":"ATA","latitude":-72.01629,"longitude":2.53332,"population":44},{"id":77,"name":"Svea Station","country":"ATA","latitude":-74.5829,"longitude":-11.21669,"population":10},{"id":78,"name":"Novolazarevskaya Station","country":"ATA","latitude":-71.30123,"longitude":-11.85021,"population":70},{"id":79,"name":"Neumayer Station III","country":"ATA","latitude":-70.8904,"longitude":-7.83844,"population":40},{"id":80,"name":"Maitri Station","country":"ATA","latitude":-70.78218,"longitude":11.73046,"population":65},{"id":81,"name":"Halley Station","country":"ATA","latitude":-76.09226,"longitude":-26.47416,"population":70},{"id":82,"name":"Belgrano Station","country":"ATA","latitude":-77.86632,"longitude":-34.61668,"population":100},{"id":83,"name":"Camp Sobral","country":"ATA","latitude":-81.17908,"longitude":-40.50153,"population":40},{"id":84,"name":"Aboa Station","country":"ATA","latitude":-75.04959,"longitude":-13.41671,"population":18},{"id":85,"name":"San Mart\u00edn Station","country":"ATA","latitude":-68.11632,"longitude":-67.1,"population":20},{"id":86,"name":"Gen. O'Higgins Station","country":"ATA","latitude":-63.32842,"longitude":-57.88959,"population":44},{"id":87,"name":"Esperanza Station","country":"ATA","latitude":-63.37533,"longitude":-57.0259,"population":250},{"id":88,"name":"Orcadas Station","country":"ATA","latitude":-60.7329,"longitude":-44.7333,"population":45},{"id":89,"name":"Signy Research Station","country":"ATA","latitude":-60.63131,"longitude":-45.6007,"population":8},{"id":90,"name":"Dumont d'Urville Station","country":"ATA","latitude":-66.77505,"longitude":139.96368,"population":120},{"id":91,"name":"Showa Station","country":"ATA","latitude":-69.03039,"longitude":39.74608,"population":60},{"id":92,"name":"Gibraltar","country":"GBR","latitude":36.13243,"longitude":-5.37807,"population":187083},{"id":93,"name":"Lobamba","country":"SWZ","latitude":-26.46667,"longitude":31.2,"population":9782},{"id":94,"name":"Edinburgh","country":"GBR","latitude":55.94833,"longitude":-3.21909,"population":504966},{"id":95,"name":"Cardiff","country":"GBR","latitude":51.49999,"longitude":-3.22501,"population":861400},{"id":96,"name":"Longyearbyen","country":"NOR","latitude":78.21668,"longitude":15.55,"population":1232},{"id":97,"name":"Luxembourg","country":"LUX","latitude":49.61166,"longitude":6.13,"population":107260},{"id":98,"name":"Turin","country":"ITA","latitude":45.07039,"longitude":7.66996,"population":1652000},{"id":99,"name":"Noumea","country":"FRA","latitude":-22.26253,"longitude":166.44429,"population":93060},{"id":100,"name":"Matsuyama","country":"JPN","latitude":33.84554,"longitude":132.76584,"population":533541},{"id":101,"name":"Rennes","country":"FRA","latitude":48.10002,"longitude":-1.67001,"population":209375},{"id":102,"name":"Toulouse","country":"FRA","latitude":43.61996,"longitude":1.44993,"population":847000},{"id":103,"name":"Limoges","country":"FRA","latitude":45.82998,"longitude":1.24999,"population":152199},{"id":104,"name":"Lille","country":"FRA","latitude":50.64997,"longitude":3.08001,"population":1044000},{"id":105,"name":"Strasbourg","country":"FRA","latitude":48.57997,"longitude":7.75001,"population":439972},{"id":106,"name":"Batumi","country":"GEO","latitude":41.6,"longitude":41.63001,"population":155542},{"id":107,"name":"Funchal","country":"PRT","latitude":32.64998,"longitude":-16.88004,"population":204767},{"id":108,"name":"El Fasher","country":"SDN","latitude":13.62998,"longitude":25.35002,"population":252609},{"id":109,"name":"Keetmanshoop","country":"NAM","latitude":-26.5739,"longitude":18.12999,"population":18039},{"id":110,"name":"Swakopmund","country":"NAM","latitude":-22.66886,"longitude":14.53502,"population":29491},{"id":111,"name":"Genoa","country":"ITA","latitude":44.40999,"longitude":8.93004,"population":647497},{"id":112,"name":"Sukhumi","country":"GEO","latitude":43.02002,"longitude":41.02002,"population":81546},{"id":113,"name":"Palikir","country":"FSM","latitude":6.91664,"longitude":158.14997,"population":4645},{"id":114,"name":"Majuro","country":"MHL","latitude":7.103,"longitude":171.38,"population":25400},{"id":115,"name":"Agana","country":"USA","latitude":13.47002,"longitude":144.75002,"population":122411},{"id":116,"name":"Funafuti","country":"TUV","latitude":-8.51665,"longitude":179.21665,"population":4749},{"id":117,"name":"Melekeok","country":"PLW","latitude":7.4874,"longitude":134.62655,"population":7026},{"id":118,"name":"Bir Lehlou","country":"SAH","latitude":26.11917,"longitude":-9.65252,"population":500},{"id":119,"name":"Monaco","country":"MCO","latitude":43.73965,"longitude":7.40691,"population":36371},{"id":120,"name":"Tarawa","country":"KIR","latitude":1.33819,"longitude":173.01757,"population":28802},{"id":121,"name":"Moroni","country":"COM","latitude":-11.70416,"longitude":43.24024,"population":128698},{"id":122,"name":"Macau","country":"CHN","latitude":22.203,"longitude":113.54505,"population":568700},{"id":123,"name":"Andorra","country":"AND","latitude":42.5,"longitude":1.51649,"population":53998},{"id":124,"name":"San Bernardino","country":"USA","latitude":34.12038,"longitude":-117.30003,"population":1745000},{"id":125,"name":"Bridgeport","country":"USA","latitude":41.17998,"longitude":-73.19996,"population":1018000},{"id":126,"name":"Rochester","country":"USA","latitude":43.17043,"longitude":-77.61995,"population":755000},{"id":127,"name":"Manchester","country":"GBR","latitude":53.50042,"longitude":-2.24799,"population":2230000},{"id":128,"name":"Gujranwala","country":"PAK","latitude":32.16043,"longitude":74.18502,"population":1513000},{"id":129,"name":"Incheon","country":"KOR","latitude":37.47615,"longitude":126.64223,"population":2550000},{"id":130,"name":"Benin City","country":"NGA","latitude":6.34048,"longitude":5.62001,"population":1190000},{"id":131,"name":"Xiamen","country":"CHN","latitude":24.44999,"longitude":118.08002,"population":2519000},{"id":132,"name":"Nanchong","country":"CHN","latitude":30.78043,"longitude":106.13,"population":2174000},{"id":133,"name":"Neijiang","country":"CHN","latitude":29.58038,"longitude":105.05001,"population":1466000},{"id":134,"name":"Nanyang","country":"CHN","latitude":33.0004,"longitude":112.53002,"population":1944000},{"id":135,"name":"Jinxi","country":"CHN","latitude":40.75034,"longitude":120.82998,"population":2426000},{"id":136,"name":"Yantai","country":"CHN","latitude":37.53041,"longitude":121.40002,"population":2116000},{"id":137,"name":"Zaozhuang","country":"CHN","latitude":34.88,"longitude":117.57002,"population":2145000},{"id":138,"name":"Suzhou","country":"CHN","latitude":31.30048,"longitude":120.62002,"population":1650000},{"id":139,"name":"Xuzhou","country":"CHN","latitude":34.28001,"longitude":117.18002,"population":2091000},{"id":140,"name":"Wuxi","country":"CHN","latitude":31.58,"longitude":120.29998,"population":1749000},{"id":141,"name":"Jilin","country":"CHN","latitude":43.84997,"longitude":126.55004,"population":2396000},{"id":142,"name":"Chandigarh","country":"IND","latitude":30.72,"longitude":76.78001,"population":979000},{"id":143,"name":"Jammu","country":"IND","latitude":32.71179,"longitude":74.84674,"population":791000},{"id":144,"name":"Sholapur","country":"IND","latitude":17.67041,"longitude":75.90001,"population":1057000},{"id":145,"name":"Aurangabad","country":"IND","latitude":19.8957,"longitude":75.3203,"population":1113000},{"id":146,"name":"Nasik","country":"IND","latitude":20.00042,"longitude":73.77998,"population":1473000},{"id":147,"name":"Dispur","country":"IND","latitude":26.14402,"longitude":91.76664,"population":16140},{"id":148,"name":"Jullundur","country":"IND","latitude":31.33492,"longitude":75.56902,"population":855000},{"id":149,"name":"Allahabad","country":"IND","latitude":25.455,"longitude":81.84001,"population":1201000},{"id":150,"name":"Moradabad","country":"IND","latitude":28.84179,"longitude":78.75678,"population":787000},{"id":151,"name":"Ghaziabad","country":"IND","latitude":28.66038,"longitude":77.40839,"population":1341000},{"id":152,"name":"Agra","country":"IND","latitude":27.17042,"longitude":78.01502,"population":1592000},{"id":153,"name":"Aligarh","country":"IND","latitude":27.89221,"longitude":78.06179,"population":805000},{"id":154,"name":"Meerut","country":"IND","latitude":29.00041,"longitude":77.7,"population":1398000},{"id":155,"name":"Dhanbad","country":"IND","latitude":23.80039,"longitude":86.41999,"population":1246000},{"id":156,"name":"Gwalior","country":"IND","latitude":26.22999,"longitude":78.18008,"population":978000},{"id":157,"name":"Vadodara","country":"IND","latitude":22.31002,"longitude":73.18002,"population":1756000},{"id":158,"name":"Rajkot","country":"IND","latitude":22.31002,"longitude":70.80001,"population":1260000},{"id":159,"name":"Durazno","country":"URY","latitude":-33.41002,"longitude":-56.51005,"population":34037},{"id":160,"name":"International Falls","country":"USA","latitude":48.60113,"longitude":-93.41085,"population":15240},{"id":161,"name":"St. Paul","country":"USA","latitude":44.94399,"longitude":-93.08497,"population":734854},{"id":162,"name":"Billings","country":"USA","latitude":45.7883,"longitude":-108.54,"population":104552},{"id":163,"name":"Great Falls","country":"USA","latitude":47.50029,"longitude":-111.29999,"population":66558},{"id":164,"name":"Missoula","country":"USA","latitude":46.87224,"longitude":-113.99305,"population":72856},{"id":165,"name":"Minot","country":"USA","latitude":48.23249,"longitude":-101.29582,"population":39439},{"id":166,"name":"Fargo","country":"USA","latitude":46.87723,"longitude":-96.78943,"population":162842},{"id":167,"name":"Hilo","country":"USA","latitude":19.7,"longitude":-155.09003,"population":52391},{"id":168,"name":"Olympia","country":"USA","latitude":47.03804,"longitude":-122.89943,"population":156984},{"id":169,"name":"Spokane","country":"USA","latitude":47.67,"longitude":-117.41995,"population":347705},{"id":170,"name":"Vancouver","country":"USA","latitude":45.6303,"longitude":-122.63999,"population":525802},{"id":171,"name":"Flagstaff","country":"USA","latitude":35.1981,"longitude":-111.65051,"population":63993},{"id":172,"name":"Tucson","country":"USA","latitude":32.205,"longitude":-110.88999,"population":823000},{"id":173,"name":"Santa Barbara","country":"USA","latitude":34.43499,"longitude":-119.71999,"population":181632},{"id":174,"name":"Fresno","country":"USA","latitude":36.74772,"longitude":-119.77298,"population":616353},{"id":175,"name":"Eureka","country":"USA","latitude":40.80222,"longitude":-124.1475,"population":42398},{"id":176,"name":"Colorado Springs","country":"USA","latitude":38.86296,"longitude":-104.79199,"population":493654},{"id":177,"name":"Reno","country":"USA","latitude":39.52998,"longitude":-119.82001,"population":328585},{"id":178,"name":"Elko","country":"USA","latitude":40.83251,"longitude":-115.76199,"population":19252},{"id":179,"name":"Albuquerque","country":"USA","latitude":35.10497,"longitude":-106.64133,"population":898642},{"id":180,"name":"Salem","country":"USA","latitude":44.92807,"longitude":-123.0239,"population":229010},{"id":181,"name":"Casper","country":"USA","latitude":42.86662,"longitude":-106.31249,"population":60791},{"id":182,"name":"Topeka","country":"USA","latitude":39.05001,"longitude":-95.66998,"population":132091},{"id":183,"name":"Kansas City","country":"USA","latitude":39.10709,"longitude":-94.60409,"population":1469000},{"id":184,"name":"Tulsa","country":"USA","latitude":36.12,"longitude":-95.93002,"population":946962},{"id":185,"name":"Sioux Falls","country":"USA","latitude":43.54999,"longitude":-96.73,"population":155724},{"id":186,"name":"Shreveport","country":"USA","latitude":32.50002,"longitude":-93.77002,"population":248053},{"id":187,"name":"Baton Rouge","country":"USA","latitude":30.45795,"longitude":-91.14016,"population":422072},{"id":188,"name":"Ft. Worth","country":"USA","latitude":32.73998,"longitude":-97.34004,"population":1440454},{"id":189,"name":"Corpus Christi","country":"USA","latitude":27.74281,"longitude":-97.40189,"population":277454},{"id":190,"name":"Austin","country":"USA","latitude":30.26695,"longitude":-97.74278,"population":1161000},{"id":191,"name":"Amarillo","country":"USA","latitude":35.22998,"longitude":-101.83,"population":181766},{"id":192,"name":"El Paso","country":"USA","latitude":31.77998,"longitude":-106.51,"population":753000},{"id":193,"name":"Laredo","country":"USA","latitude":27.50614,"longitude":-99.50722,"population":434768},{"id":194,"name":"Merida","country":"VEN","latitude":8.39999,"longitude":-71.13001,"population":345489},{"id":195,"name":"Burlington","country":"USA","latitude":44.4758,"longitude":-73.21247,"population":93807},{"id":196,"name":"Montgomery","country":"USA","latitude":32.3616,"longitude":-86.27919,"population":198325},{"id":197,"name":"Tallahassee","country":"USA","latitude":30.44999,"longitude":-84.28003,"population":221222},{"id":198,"name":"Orlando","country":"USA","latitude":28.50998,"longitude":-81.38003,"population":1350000},{"id":199,"name":"Jacksonville","country":"USA","latitude":30.33002,"longitude":-81.66999,"population":988000},{"id":200,"name":"Savannah","country":"USA","latitude":32.02111,"longitude":-81.11,"population":180187},{"id":201,"name":"Columbia","country":"USA","latitude":34.03998,"longitude":-80.89998,"population":398093},{"id":202,"name":"Indianapolis","country":"USA","latitude":39.74999,"longitude":-86.17005,"population":1436000},{"id":203,"name":"Wilmington","country":"USA","latitude":34.22552,"longitude":-77.94502,"population":161560},{"id":204,"name":"Knoxville","country":"USA","latitude":35.97001,"longitude":-83.92003,"population":655400},{"id":205,"name":"Richmond","country":"USA","latitude":37.55002,"longitude":-77.44999,"population":912000},{"id":206,"name":"Charleston","country":"USA","latitude":38.34974,"longitude":-81.63273,"population":123799},{"id":207,"name":"Baltimore","country":"USA","latitude":39.29999,"longitude":-76.61998,"population":2255000},{"id":208,"name":"Syracuse","country":"USA","latitude":43.04999,"longitude":-76.15001,"population":662577},{"id":209,"name":"Puerto Ayacucho","country":"VEN","latitude":5.6639,"longitude":-67.62361,"population":52526},{"id":210,"name":"Port-of-Spain","country":"TTO","latitude":10.652,"longitude":-61.51703,"population":294934},{"id":211,"name":"Augusta","country":"USA","latitude":44.31056,"longitude":-69.77999,"population":24042},{"id":212,"name":"Sault Ste. Marie","country":"USA","latitude":46.49526,"longitude":-84.34528,"population":83805},{"id":213,"name":"Atakpame","country":"TGO","latitude":7.53004,"longitude":1.12002,"population":80683},{"id":214,"name":"Sousse","country":"TUN","latitude":35.83,"longitude":10.62503,"population":327004},{"id":215,"name":"Taizz","country":"YEM","latitude":13.60445,"longitude":44.03942,"population":751000},{"id":216,"name":"Sitka","country":"USA","latitude":57.0604,"longitude":-135.32755,"population":8931},{"id":217,"name":"Lvov","country":"UKR","latitude":49.83498,"longitude":24.03,"population":803880},{"id":218,"name":"Odessa","country":"UKR","latitude":46.49002,"longitude":30.71,"population":991000},{"id":219,"name":"Zhytomyr","country":"UKR","latitude":50.24558,"longitude":28.66217,"population":282192},{"id":220,"name":"Dnipropetrovsk","country":"UKR","latitude":48.47997,"longitude":35.00002,"population":1050000},{"id":221,"name":"Donetsk","country":"UKR","latitude":48.0,"longitude":37.82998,"population":988000},{"id":222,"name":"Kharkiv","country":"UKR","latitude":49.99998,"longitude":36.25002,"population":1461000},{"id":223,"name":"Turkmenbasy","country":"TKM","latitude":40.02305,"longitude":52.96968,"population":68292},{"id":224,"name":"Bukhara","country":"UZB","latitude":39.78001,"longitude":64.43001,"population":319476},{"id":225,"name":"Nukus","country":"UZB","latitude":42.47,"longitude":59.61501,"population":230006},{"id":226,"name":"Turkmenabat","country":"TKM","latitude":39.11,"longitude":63.58004,"population":234817},{"id":227,"name":"Mary","country":"TKM","latitude":37.60002,"longitude":61.83332,"population":178708},{"id":228,"name":"Andijon","country":"UZB","latitude":40.79,"longitude":72.33997,"population":650000},{"id":229,"name":"Haiphong","country":"VNM","latitude":20.83001,"longitude":106.68009,"population":1969000},{"id":230,"name":"Da Nang","country":"VNM","latitude":16.06004,"longitude":108.24997,"population":1000000},{"id":231,"name":"Kabwe","country":"ZMB","latitude":-14.44001,"longitude":28.44998,"population":188979},{"id":232,"name":"Mufulira","country":"ZMB","latitude":-12.55,"longitude":28.25997,"population":153624},{"id":233,"name":"Kitwe","country":"ZMB","latitude":-12.81003,"longitude":28.22002,"population":404901},{"id":234,"name":"Livingstone","country":"ZMB","latitude":-17.86001,"longitude":25.86001,"population":165480},{"id":235,"name":"Chitungwiza","country":"ZWE","latitude":-18.0,"longitude":31.1,"population":340360},{"id":236,"name":"Douala","country":"CMR","latitude":4.06041,"longitude":9.70999,"population":1906000},{"id":237,"name":"Birmingham","country":"GBR","latitude":52.47497,"longitude":-1.92,"population":2285000},{"id":238,"name":"Belfast","country":"GBR","latitude":54.60001,"longitude":-5.96003,"population":450406},{"id":239,"name":"Izmir","country":"TUR","latitude":38.43615,"longitude":27.15179,"population":2587000},{"id":240,"name":"Bursa","country":"TUR","latitude":40.19999,"longitude":29.07,"population":1492000},{"id":241,"name":"Samsun","country":"TUR","latitude":41.28,"longitude":36.34366,"population":609339},{"id":242,"name":"Konya","country":"TUR","latitude":37.87501,"longitude":32.47501,"population":919000},{"id":243,"name":"Adana","country":"TUR","latitude":36.99499,"longitude":35.32,"population":1293000},{"id":244,"name":"Gulu","country":"UGA","latitude":2.78,"longitude":32.28003,"population":146858},{"id":245,"name":"Kigali","country":"RWA","latitude":-1.95359,"longitude":30.06053,"population":860000},{"id":246,"name":"Cottica","country":"SUR","latitude":3.85001,"longitude":-54.23329,"population":29210},{"id":247,"name":"Cordoba","country":"ESP","latitude":37.88,"longitude":-4.77,"population":321376},{"id":248,"name":"Maradi","country":"NER","latitude":13.49164,"longitude":7.0964,"population":232555},{"id":249,"name":"Tahoua","country":"NER","latitude":14.89998,"longitude":5.25993,"population":115956},{"id":250,"name":"Constanta","country":"ROU","latitude":44.20266,"longitude":28.60997,"population":303399},{"id":251,"name":"Lule\u00e5","country":"SWE","latitude":65.59663,"longitude":22.15838,"population":48638},{"id":252,"name":"Sundsvall","country":"SWE","latitude":62.40005,"longitude":17.31666,"population":73389},{"id":253,"name":"Iasi","country":"ROU","latitude":47.16835,"longitude":27.57495,"population":325914},{"id":254,"name":"Surat Thani","country":"THA","latitude":9.1501,"longitude":99.34013,"population":157627},{"id":255,"name":"Chiang Mai","country":"THA","latitude":18.79998,"longitude":98.98005,"population":397211},{"id":256,"name":"Nakhon Ratchasima","country":"THA","latitude":15.00003,"longitude":102.10001,"population":334984},{"id":257,"name":"Mbabane","country":"SWZ","latitude":-26.31665,"longitude":31.13333,"population":90138},{"id":258,"name":"Piura","country":"PER","latitude":-5.21003,"longitude":-80.62997,"population":396932},{"id":259,"name":"Arequipa","country":"PER","latitude":-16.41999,"longitude":-71.53001,"population":815000},{"id":260,"name":"Chimbote","country":"PER","latitude":-9.07,"longitude":-78.57,"population":349846},{"id":261,"name":"Pucallpa","country":"PER","latitude":-8.36891,"longitude":-74.535,"population":310750},{"id":262,"name":"Iquitos","country":"PER","latitude":-3.75002,"longitude":-73.25001,"population":458729},{"id":263,"name":"Huancayo","country":"PER","latitude":-12.08,"longitude":-75.20002,"population":412733},{"id":264,"name":"Ciudad del Este","country":"PRY","latitude":-25.5167,"longitude":-54.61606,"population":320872},{"id":265,"name":"Ponta Delgada","country":"PRT","latitude":37.7483,"longitude":-25.66658,"population":61526},{"id":266,"name":"Vigo","country":"ESP","latitude":42.22002,"longitude":-8.72999,"population":378952},{"id":267,"name":"Bilbao","country":"ESP","latitude":43.24998,"longitude":-2.92999,"population":875552},{"id":268,"name":"Kaolack","country":"SEN","latitude":14.14997,"longitude":-16.10001,"population":277812},{"id":269,"name":"Kaedi","country":"SEN","latitude":16.15001,"longitude":-13.49999,"population":21656},{"id":270,"name":"Geneina","country":"SDN","latitude":13.45002,"longitude":22.44002,"population":162981},{"id":271,"name":"Medina","country":"SAU","latitude":24.49999,"longitude":39.58,"population":1010000},{"id":272,"name":"Tabuk","country":"SAU","latitude":28.38383,"longitude":36.55497,"population":547957},{"id":273,"name":"Juba","country":"SSD","latitude":4.82998,"longitude":31.58003,"population":111975},{"id":274,"name":"Malakal","country":"SSD","latitude":9.5369,"longitude":31.65599,"population":160765},{"id":275,"name":"Omdurman","country":"SDN","latitude":15.61668,"longitude":32.48002,"population":2395159},{"id":276,"name":"El Obeid","country":"SDN","latitude":13.18329,"longitude":30.2167,"population":393311},{"id":277,"name":"The Hague","country":"NLD","latitude":52.08004,"longitude":4.26996,"population":1406000},{"id":278,"name":"Kristiansand","country":"NOR","latitude":58.16664,"longitude":8.00002,"population":63814},{"id":279,"name":"Ljubljana","country":"SVN","latitude":46.05529,"longitude":14.51497,"population":314807},{"id":280,"name":"Bratislava","country":"SVK","latitude":48.15002,"longitude":17.11698,"population":423737},{"id":281,"name":"Hammerfest","country":"NOR","latitude":70.66128,"longitude":23.688,"population":10000},{"id":282,"name":"Doha","country":"QAT","latitude":25.28656,"longitude":51.53297,"population":1450000},{"id":283,"name":"Quetta","country":"PAK","latitude":30.22,"longitude":67.02499,"population":768000},{"id":284,"name":"Larkana","country":"PAK","latitude":27.56177,"longitude":68.20678,"population":364033},{"id":285,"name":"Springbok","country":"ZAF","latitude":-29.66673,"longitude":17.88329,"population":10438},{"id":286,"name":"Upington","country":"ZAF","latitude":-28.46003,"longitude":21.23001,"population":71373},{"id":287,"name":"Worcester","country":"ZAF","latitude":-33.64003,"longitude":19.43994,"population":127597},{"id":288,"name":"George","country":"ZAF","latitude":-33.95003,"longitude":22.45004,"population":174582},{"id":289,"name":"Tete","country":"MOZ","latitude":-16.17003,"longitude":33.58001,"population":129316},{"id":290,"name":"Pemba","country":"MOZ","latitude":-12.98305,"longitude":40.53235,"population":110643},{"id":291,"name":"Nampula","country":"MOZ","latitude":-15.13604,"longitude":39.29304,"population":388526},{"id":292,"name":"Welkom","country":"ZAF","latitude":-27.96999,"longitude":26.72999,"population":431944},{"id":293,"name":"Xai-Xai","country":"MOZ","latitude":-25.03998,"longitude":33.64,"population":128805},{"id":294,"name":"Goroka","country":"PNG","latitude":-6.08331,"longitude":145.38548,"population":39699},{"id":295,"name":"Mt. Hagen","country":"PNG","latitude":-5.86322,"longitude":144.21682,"population":59064},{"id":296,"name":"Rabaul","country":"PNG","latitude":-4.20549,"longitude":152.14343,"population":8074},{"id":297,"name":"Lae","country":"PNG","latitude":-6.73299,"longitude":146.99004,"population":131052},{"id":298,"name":"David","country":"PAN","latitude":8.43332,"longitude":-82.43333,"population":110037},{"id":299,"name":"Oujda","country":"MAR","latitude":34.69001,"longitude":-1.90997,"population":409391},{"id":300,"name":"Safi","country":"MAR","latitude":32.31998,"longitude":-9.23999,"population":353476},{"id":301,"name":"Podgorica","country":"MNE","latitude":42.46597,"longitude":19.26631,"population":145850},{"id":302,"name":"Quelimane","country":"MOZ","latitude":-17.88001,"longitude":36.88999,"population":188964},{"id":303,"name":"East London","country":"ZAF","latitude":-32.97004,"longitude":27.87002,"population":338627},{"id":304,"name":"Middelburg","country":"ZAF","latitude":-31.5,"longitude":25.00999,"population":18164},{"id":305,"name":"Naltchik","country":"RUS","latitude":43.49811,"longitude":43.61795,"population":307866},{"id":306,"name":"Stavropol","country":"RUS","latitude":45.05,"longitude":41.98001,"population":363064},{"id":307,"name":"Ugolnye Kopi","country":"RUS","latitude":64.7333,"longitude":177.7,"population":3367},{"id":308,"name":"Kaliningrad","country":"RUS","latitude":54.70001,"longitude":20.49734,"population":434954},{"id":309,"name":"Pskov","country":"RUS","latitude":57.83,"longitude":28.32994,"population":201990},{"id":310,"name":"Bryansk","country":"RUS","latitude":53.25999,"longitude":34.42998,"population":427236},{"id":311,"name":"Smolensk","country":"RUS","latitude":54.78269,"longitude":32.04734,"population":320991},{"id":312,"name":"Petrozavodsk","country":"RUS","latitude":61.84998,"longitude":34.28002,"population":265025},{"id":313,"name":"Tver","country":"RUS","latitude":56.85998,"longitude":35.89,"population":400212},{"id":314,"name":"Vologda","country":"RUS","latitude":59.20999,"longitude":39.91998,"population":294889},{"id":315,"name":"Yaroslavl","country":"RUS","latitude":57.61998,"longitude":39.87001,"population":606730},{"id":316,"name":"Rostov","country":"RUS","latitude":47.23465,"longitude":39.71266,"population":1052000},{"id":317,"name":"Sochi","country":"RUS","latitude":43.59001,"longitude":39.72997,"population":327608},{"id":318,"name":"Krasnodar","country":"RUS","latitude":45.01998,"longitude":39.00004,"population":649851},{"id":319,"name":"Penza","country":"RUS","latitude":53.18002,"longitude":44.99998,"population":512602},{"id":320,"name":"Ryazan","country":"RUS","latitude":54.61996,"longitude":39.71999,"population":520173},{"id":321,"name":"Voronezh","country":"RUS","latitude":51.72998,"longitude":39.27,"population":844000},{"id":322,"name":"Magnitogorsk","country":"RUS","latitude":53.42269,"longitude":58.98001,"population":413351},{"id":323,"name":"Chelyabinsk","country":"RUS","latitude":55.15499,"longitude":61.43867,"population":1091000},{"id":324,"name":"Vorkuta","country":"RUS","latitude":67.5,"longitude":64.00998,"population":80039},{"id":325,"name":"Kirov","country":"RUS","latitude":58.59005,"longitude":49.66998,"population":457437},{"id":326,"name":"Nizhny Tagil","country":"RUS","latitude":57.92002,"longitude":59.97498,"population":381116},{"id":327,"name":"Astrakhan","country":"RUS","latitude":46.34866,"longitude":48.05499,"population":502533},{"id":328,"name":"Orenburg","country":"RUS","latitude":51.77998,"longitude":55.11001,"population":550204},{"id":329,"name":"Saratov","country":"RUS","latitude":51.57999,"longitude":46.03,"population":843000},{"id":330,"name":"Ulyanovsk","country":"RUS","latitude":54.32998,"longitude":48.41001,"population":640680},{"id":331,"name":"Omsk","country":"RUS","latitude":54.98999,"longitude":73.39995,"population":1135000},{"id":332,"name":"Tyumen","country":"RUS","latitude":57.14001,"longitude":65.52999,"population":519119},{"id":333,"name":"Novokuznetsk","country":"RUS","latitude":53.75001,"longitude":87.11498,"population":539616},{"id":334,"name":"Kemerovo","country":"RUS","latitude":55.33997,"longitude":86.08998,"population":477090},{"id":335,"name":"Groznyy","country":"RUS","latitude":43.31869,"longitude":45.6987,"population":226100},{"id":336,"name":"Kandy","country":"LKA","latitude":7.27998,"longitude":80.67,"population":111701},{"id":337,"name":"Sri Jawewardenepura Kotte","country":"LKA","latitude":6.9,"longitude":79.94999,"population":115826},{"id":338,"name":"Daejeon","country":"KOR","latitude":36.33555,"longitude":127.42503,"population":1468000},{"id":339,"name":"Gwangju","country":"KOR","latitude":35.17097,"longitude":126.91043,"population":1440000},{"id":340,"name":"Busan","country":"KOR","latitude":35.09505,"longitude":129.01005,"population":3480000},{"id":341,"name":"Zamboanga","country":"PHL","latitude":6.91998,"longitude":122.08003,"population":773000},{"id":342,"name":"Laoag","country":"PHL","latitude":18.19885,"longitude":120.59361,"population":207048},{"id":343,"name":"Baguio City","country":"PHL","latitude":16.42999,"longitude":120.56994,"population":447824},{"id":344,"name":"General Santos","country":"PHL","latitude":6.11083,"longitude":125.17473,"population":950530},{"id":345,"name":"Ust-Ulimsk","country":"RUS","latitude":57.98996,"longitude":102.63331,"population":100271},{"id":346,"name":"Angarsk","country":"RUS","latitude":52.56001,"longitude":103.92,"population":243158},{"id":347,"name":"Abakan","country":"RUS","latitude":53.70368,"longitude":91.445,"population":167289},{"id":348,"name":"Norilsk","country":"RUS","latitude":69.34002,"longitude":88.22499,"population":165873},{"id":349,"name":"Khatanga","country":"RUS","latitude":72.04114,"longitude":102.465,"population":3205},{"id":350,"name":"Kyzyl","country":"RUS","latitude":51.7067,"longitude":94.38307,"population":108240},{"id":351,"name":"Ulan Ude","country":"RUS","latitude":51.82499,"longitude":107.625,"population":360278},{"id":352,"name":"Blagoveshchensk","country":"RUS","latitude":50.26661,"longitude":127.53334,"population":221296},{"id":353,"name":"Bukachacha","country":"RUS","latitude":52.98334,"longitude":116.91663,"population":3372},{"id":354,"name":"Dalnegorsk","country":"RUS","latitude":44.53722,"longitude":135.51725,"population":8123},{"id":355,"name":"Ambarchik","country":"RUS","latitude":69.65101,"longitude":162.33359,"population":0},{"id":356,"name":"Batagay","country":"RUS","latitude":67.65599,"longitude":134.63503,"population":4266},{"id":357,"name":"Chokurdakh","country":"RUS","latitude":70.61831,"longitude":147.89458,"population":2506},{"id":358,"name":"Ust Nera","country":"RUS","latitude":64.56659,"longitude":143.19998,"population":9148},{"id":359,"name":"Lensk","country":"RUS","latitude":60.72527,"longitude":114.94703,"population":25589},{"id":360,"name":"Aldan","country":"RUS","latitude":58.603,"longitude":125.38939,"population":24426},{"id":361,"name":"Mirnyy","country":"RUS","latitude":62.54002,"longitude":113.96135,"population":40308},{"id":362,"name":"Zhigansk","country":"RUS","latitude":66.76971,"longitude":123.37112,"population":3237},{"id":363,"name":"Okhotsk","country":"RUS","latitude":59.383,"longitude":143.21704,"population":5570},{"id":364,"name":"Khabarovsk","country":"RUS","latitude":48.45499,"longitude":135.12001,"population":579000},{"id":365,"name":"Okha","country":"RUS","latitude":53.5739,"longitude":142.94785,"population":26560},{"id":366,"name":"Yuzhno Sakhalinsk","country":"RUS","latitude":46.96497,"longitude":142.74001,"population":176484},{"id":367,"name":"Mexicali","country":"MEX","latitude":32.64998,"longitude":-115.48002,"population":885000},{"id":368,"name":"La Paz","country":"MEX","latitude":24.13996,"longitude":-110.32,"population":189767},{"id":369,"name":"Torreon","country":"MEX","latitude":25.57005,"longitude":-103.42,"population":1144000},{"id":370,"name":"Culiacan","country":"MEX","latitude":24.82999,"longitude":-107.37997,"population":809000},{"id":371,"name":"Nogales","country":"MEX","latitude":31.305,"longitude":-110.945,"population":178097},{"id":372,"name":"Hermosillo","country":"MEX","latitude":29.09888,"longitude":-110.95406,"population":595811},{"id":373,"name":"Guaymas","country":"MEX","latitude":27.93001,"longitude":-110.88999,"population":103449},{"id":374,"name":"San Luis Potosi","country":"MEX","latitude":22.16998,"longitude":-101.0,"population":992000},{"id":375,"name":"Matamoros","country":"MEX","latitude":25.87998,"longitude":-97.5,"population":538785},{"id":376,"name":"Nuevo Laredo","country":"MEX","latitude":27.49999,"longitude":-99.55001,"population":349550},{"id":377,"name":"Colima","country":"MEX","latitude":19.22997,"longitude":-103.72001,"population":223287},{"id":378,"name":"Campeche","country":"MEX","latitude":19.82999,"longitude":-90.49999,"population":205212},{"id":379,"name":"Oaxaca","country":"MEX","latitude":17.08269,"longitude":-96.66995,"population":530728},{"id":380,"name":"Leon","country":"MEX","latitude":21.14999,"longitude":-101.70003,"population":1488000},{"id":381,"name":"Maiduguri","country":"NGA","latitude":11.84996,"longitude":13.16001,"population":896000},{"id":382,"name":"Port Harcourt","country":"NGA","latitude":4.81,"longitude":7.01,"population":1020000},{"id":383,"name":"Makurdi","country":"NGA","latitude":7.72998,"longitude":8.53001,"population":292645},{"id":384,"name":"Ibadan","country":"NGA","latitude":7.38003,"longitude":3.92998,"population":2628000},{"id":385,"name":"Ogbomosho","country":"NGA","latitude":8.13001,"longitude":4.23999,"population":951000},{"id":386,"name":"Warri","country":"NGA","latitude":5.51996,"longitude":5.76,"population":830106},{"id":387,"name":"Kaduna","country":"NGA","latitude":10.52002,"longitude":7.44,"population":1442000},{"id":388,"name":"Gdansk","country":"POL","latitude":54.35998,"longitude":18.64004,"population":740000},{"id":389,"name":"Krak\u00f3w","country":"POL","latitude":50.05998,"longitude":19.96001,"population":756000},{"id":390,"name":"Dalandzadgad","country":"MNG","latitude":43.58355,"longitude":104.44028,"population":15093},{"id":391,"name":"Wonsan","country":"PRK","latitude":39.16049,"longitude":127.43082,"population":329207},{"id":392,"name":"Sinuiju","country":"PRK","latitude":40.08586,"longitude":124.42128,"population":288112},{"id":393,"name":"Dund-Us","country":"MNG","latitude":48.01664,"longitude":91.63326,"population":30500},{"id":394,"name":"Choybalsan","country":"MNG","latitude":48.06659,"longitude":114.50602,"population":33376},{"id":395,"name":"L\u00fcderitz","country":"NAM","latitude":-26.648,"longitude":15.15943,"population":15137},{"id":396,"name":"Walvis Bay","country":"NAM","latitude":-22.95753,"longitude":14.50531,"population":52058},{"id":397,"name":"Mwanza","country":"TZA","latitude":-2.52002,"longitude":32.93002,"population":493944},{"id":398,"name":"Morogoro","country":"TZA","latitude":-6.82001,"longitude":37.66002,"population":250902},{"id":399,"name":"Dodoma","country":"TZA","latitude":-6.18331,"longitude":35.75,"population":218269},{"id":400,"name":"Arusha","country":"TZA","latitude":-3.36002,"longitude":36.67,"population":341136},{"id":401,"name":"Napier","country":"NZL","latitude":-39.49001,"longitude":176.91503,"population":56787},{"id":402,"name":"Manukau","country":"NZL","latitude":-36.99998,"longitude":174.88497,"population":362000},{"id":403,"name":"Hamilton","country":"NZL","latitude":-37.77001,"longitude":175.30004,"population":112145},{"id":404,"name":"Blenheim","country":"NZL","latitude":-41.52099,"longitude":173.95924,"population":26550},{"id":405,"name":"Dunedin","country":"NZL","latitude":-45.87995,"longitude":170.47997,"population":114347},{"id":406,"name":"Bern","country":"CHE","latitude":46.91668,"longitude":7.46698,"population":275329},{"id":407,"name":"Malm\u00f6","country":"SWE","latitude":55.58334,"longitude":13.0333,"population":269349},{"id":408,"name":"Laayoune","country":"MAR","latitude":27.14998,"longitude":-13.20001,"population":188084},{"id":409,"name":"Ternate","country":"IDN","latitude":0.79296,"longitude":127.36302,"population":187521},{"id":410,"name":"Ambon","country":"IDN","latitude":-3.71669,"longitude":128.20002,"population":355596},{"id":411,"name":"Raba","country":"IDN","latitude":-8.44999,"longitude":118.76664,"population":106101},{"id":412,"name":"Jayapura","country":"IDN","latitude":-2.53299,"longitude":140.69998,"population":169341},{"id":413,"name":"Florence","country":"ITA","latitude":43.78,"longitude":11.25,"population":1500000},{"id":414,"name":"Catania","country":"ITA","latitude":37.49997,"longitude":15.08,"population":674542},{"id":415,"name":"Pristina","country":"KOS","latitude":42.66671,"longitude":21.16598,"population":465186},{"id":416,"name":"Meru","country":"KEN","latitude":0.05998,"longitude":37.64002,"population":47226},{"id":417,"name":"Eldoret","country":"KEN","latitude":0.52001,"longitude":35.26998,"population":353381},{"id":418,"name":"Banda Aceh","country":"IDN","latitude":5.54998,"longitude":95.32001,"population":513698},{"id":419,"name":"George Town","country":"MYS","latitude":5.41361,"longitude":100.32937,"population":2500000},{"id":420,"name":"Zhangye","country":"CHN","latitude":38.92999,"longitude":100.45003,"population":230728},{"id":421,"name":"Wuwei","country":"CHN","latitude":37.92801,"longitude":102.64101,"population":493092},{"id":422,"name":"Dunhuang","country":"CHN","latitude":40.14268,"longitude":94.66201,"population":140094},{"id":423,"name":"Tianshui","country":"CHN","latitude":34.60002,"longitude":105.91998,"population":1225000},{"id":424,"name":"Dulan","country":"CHN","latitude":36.16659,"longitude":98.2666,"population":100},{"id":425,"name":"Golmud","country":"CHN","latitude":36.41663,"longitude":94.88335,"population":107092},{"id":426,"name":"Yulin","country":"CHN","latitude":22.62997,"longitude":110.15001,"population":1127000},{"id":427,"name":"Bose","country":"CHN","latitude":23.89972,"longitude":106.61333,"population":175282},{"id":428,"name":"Wuzhou","country":"CHN","latitude":23.48003,"longitude":111.32002,"population":442315},{"id":429,"name":"Lupanshui","country":"CHN","latitude":26.59443,"longitude":104.83333,"population":1221000},{"id":430,"name":"Quanzhou","country":"CHN","latitude":24.90002,"longitude":118.57999,"population":1463000},{"id":431,"name":"Hefei","country":"CHN","latitude":31.85003,"longitude":117.28001,"population":2035000},{"id":432,"name":"Suzhou","country":"CHN","latitude":33.63611,"longitude":116.97889,"population":1964000},{"id":433,"name":"Zhanjiang","country":"CHN","latitude":21.19998,"longitude":110.38002,"population":1590000},{"id":434,"name":"Shaoguan","country":"CHN","latitude":24.79997,"longitude":113.57998,"population":720266},{"id":435,"name":"Balikpapan","country":"IDN","latitude":-1.25002,"longitude":116.83002,"population":445905},{"id":436,"name":"Kuching","country":"MYS","latitude":1.52997,"longitude":110.33,"population":570407},{"id":437,"name":"Antsiranana","country":"MDG","latitude":-12.2765,"longitude":49.31153,"population":82937},{"id":438,"name":"Fianarantsoa","country":"MDG","latitude":-21.43333,"longitude":47.08327,"population":184184},{"id":439,"name":"Mahajanga","country":"MDG","latitude":-15.67001,"longitude":46.34502,"population":154657},{"id":440,"name":"Toliara","country":"MDG","latitude":-23.35683,"longitude":43.68998,"population":115319},{"id":441,"name":"Surakarta","country":"IDN","latitude":-7.56498,"longitude":110.82501,"population":555308},{"id":442,"name":"Bandar Lampung","country":"IDN","latitude":-5.43002,"longitude":105.27,"population":865000},{"id":443,"name":"Tanjungpandan","country":"IDN","latitude":-2.75003,"longitude":107.65001,"population":62374},{"id":444,"name":"Malang","country":"IDN","latitude":-7.97999,"longitude":112.61002,"population":805000},{"id":445,"name":"Kupang","country":"IDN","latitude":-10.17867,"longitude":123.58299,"population":282396},{"id":446,"name":"Parepare","country":"IDN","latitude":-4.01667,"longitude":119.63331,"population":87776},{"id":447,"name":"Cuenca","country":"ECU","latitude":-2.89999,"longitude":-78.99999,"population":286878},{"id":448,"name":"Santa Cruz","country":"ECU","latitude":-0.53332,"longitude":-90.35,"population":11262},{"id":449,"name":"Puerto Limon","country":"CRI","latitude":10.00002,"longitude":-83.03334,"population":85001},{"id":450,"name":"Santiago de Cuba","country":"CUB","latitude":20.02502,"longitude":-75.82133,"population":555865},{"id":451,"name":"Santiago","country":"DOM","latitude":19.50001,"longitude":-70.67001,"population":1550753},{"id":452,"name":"Manizales","country":"COL","latitude":5.05999,"longitude":-75.52,"population":375848},{"id":453,"name":"Pasto","country":"COL","latitude":1.21361,"longitude":-77.28111,"population":382236},{"id":454,"name":"Barranquilla","country":"COL","latitude":10.95999,"longitude":-74.79997,"population":1798000},{"id":455,"name":"Roseau","country":"DMA","latitude":15.30102,"longitude":-61.38701,"population":23336},{"id":456,"name":"Mbandaka","country":"COD","latitude":0.04004,"longitude":18.26001,"population":274996},{"id":457,"name":"Moundou","country":"TCD","latitude":8.54998,"longitude":16.09002,"population":156705},{"id":458,"name":"Suez","country":"EGY","latitude":30.00498,"longitude":32.54994,"population":508335},{"id":459,"name":"Bur Said","country":"EGY","latitude":31.25999,"longitude":32.29001,"population":623864},{"id":460,"name":"El Faiyum","country":"EGY","latitude":29.31003,"longitude":30.83997,"population":316772},{"id":461,"name":"Aswan","country":"EGY","latitude":24.08751,"longitude":32.89891,"population":313442},{"id":462,"name":"Asyut","country":"EGY","latitude":27.18998,"longitude":31.17995,"population":420585},{"id":463,"name":"Kisangani","country":"COD","latitude":0.52001,"longitude":25.22,"population":578470},{"id":464,"name":"Assab","country":"ERI","latitude":13.01002,"longitude":42.72999,"population":105496},{"id":465,"name":"Djibouti","country":"DJI","latitude":11.59501,"longitude":43.148,"population":923000},{"id":466,"name":"Dresden","country":"DEU","latitude":51.04997,"longitude":13.75,"population":617515},{"id":467,"name":"Xigaze","country":"CHN","latitude":29.25001,"longitude":88.88335,"population":80000},{"id":468,"name":"Shache","country":"CHN","latitude":38.42614,"longitude":77.25,"population":373492},{"id":469,"name":"Yining","country":"CHN","latitude":43.90002,"longitude":81.35001,"population":403489},{"id":470,"name":"Altay","country":"CHN","latitude":47.8666,"longitude":88.11663,"population":142000},{"id":471,"name":"Putrajaya","country":"MYS","latitude":2.91402,"longitude":101.70195,"population":67964},{"id":472,"name":"Shizuishan","country":"CHN","latitude":39.23328,"longitude":106.76903,"population":136570},{"id":473,"name":"Yulin","country":"CHN","latitude":38.28331,"longitude":109.73329,"population":155960},{"id":474,"name":"Ankang","country":"CHN","latitude":32.67998,"longitude":109.02,"population":1100000},{"id":475,"name":"Houma","country":"CHN","latitude":35.61998,"longitude":111.21,"population":102400},{"id":476,"name":"Yueyang","country":"CHN","latitude":29.38005,"longitude":113.10001,"population":826000},{"id":477,"name":"Hengyang","country":"CHN","latitude":26.88002,"longitude":112.59002,"population":1016000},{"id":478,"name":"Mianyang","country":"CHN","latitude":31.46998,"longitude":104.76998,"population":1396000},{"id":479,"name":"Xichang","country":"CHN","latitude":27.88002,"longitude":102.3,"population":379993},{"id":480,"name":"Baoshan","country":"CHN","latitude":25.11998,"longitude":99.15001,"population":1000000},{"id":481,"name":"Gejiu","country":"CHN","latitude":23.37998,"longitude":103.15008,"population":149105},{"id":482,"name":"Shijianzhuang","country":"CHN","latitude":38.05001,"longitude":114.47998,"population":2417000},{"id":483,"name":"Handan","country":"CHN","latitude":36.57998,"longitude":114.47998,"population":1631000},{"id":484,"name":"Anshan","country":"CHN","latitude":41.11502,"longitude":122.94003,"population":1639000},{"id":485,"name":"Dalian","country":"CHN","latitude":38.92284,"longitude":121.62983,"population":3167000},{"id":486,"name":"Qingdao","country":"CHN","latitude":36.08998,"longitude":120.33001,"population":2866000},{"id":487,"name":"Linyi","country":"CHN","latitude":35.07999,"longitude":118.32998,"population":2082000},{"id":488,"name":"Huaiyin","country":"CHN","latitude":33.58,"longitude":119.02998,"population":1264000},{"id":489,"name":"Wenzhou","country":"CHN","latitude":28.01998,"longitude":120.65009,"population":2350000},{"id":490,"name":"Ningbo","country":"CHN","latitude":29.87997,"longitude":121.55004,"population":1923000},{"id":491,"name":"Fukuoka","country":"JPN","latitude":33.59502,"longitude":130.41001,"population":2792000},{"id":492,"name":"Miyazaki","country":"JPN","latitude":31.91824,"longitude":131.41838,"population":324384},{"id":493,"name":"Naha","country":"JPN","latitude":26.20717,"longitude":127.67297,"population":905238},{"id":494,"name":"Kochi","country":"JPN","latitude":33.56243,"longitude":133.53752,"population":335570},{"id":495,"name":"Gorontalo","country":"IDN","latitude":0.54998,"longitude":123.07005,"population":365497},{"id":496,"name":"Tongliao","country":"CHN","latitude":43.61996,"longitude":122.26999,"population":884000},{"id":497,"name":"Hohhot","country":"CHN","latitude":40.81997,"longitude":111.66,"population":1726000},{"id":498,"name":"Chifeng","country":"CHN","latitude":42.27002,"longitude":118.94999,"population":1277000},{"id":499,"name":"Ulanhot","country":"CHN","latitude":46.08002,"longitude":122.08003,"population":241894},{"id":500,"name":"Hailar","country":"CHN","latitude":49.19998,"longitude":119.70002,"population":231171},{"id":501,"name":"Jiamusi","country":"CHN","latitude":46.83002,"longitude":130.35002,"population":1020000},{"id":502,"name":"Beian","country":"CHN","latitude":48.23901,"longitude":126.48204,"population":154936},{"id":503,"name":"Daqing","country":"CHN","latitude":46.57996,"longitude":125.00001,"population":1693000},{"id":504,"name":"Jixi","country":"CHN","latitude":45.29996,"longitude":130.97003,"population":965000},{"id":505,"name":"Nagoya","country":"JPN","latitude":35.155,"longitude":136.91499,"population":3230000},{"id":506,"name":"Nagano","country":"JPN","latitude":36.65,"longitude":138.17001,"population":594311},{"id":507,"name":"Kushiro","country":"JPN","latitude":42.97496,"longitude":144.37469,"population":198566},{"id":508,"name":"Hakodate","country":"JPN","latitude":41.79498,"longitude":140.73998,"population":302984},{"id":509,"name":"Kyoto","country":"JPN","latitude":35.02999,"longitude":135.75,"population":1805000},{"id":510,"name":"Sendai","country":"JPN","latitude":38.28711,"longitude":141.02172,"population":2250000},{"id":511,"name":"Sakata","country":"JPN","latitude":38.92004,"longitude":139.85006,"population":100446},{"id":512,"name":"Bandundu","country":"COD","latitude":-3.30999,"longitude":17.37996,"population":118211},{"id":513,"name":"Kananga","country":"COD","latitude":-5.89004,"longitude":22.40002,"population":765000},{"id":514,"name":"Kasongo","country":"COD","latitude":-4.45003,"longitude":26.66002,"population":63000},{"id":515,"name":"Mbuji-Mayi","country":"COD","latitude":-6.15003,"longitude":23.6,"population":1295000},{"id":516,"name":"Kalemie","country":"COD","latitude":-5.9333,"longitude":29.20002,"population":206257},{"id":517,"name":"Butembo","country":"COD","latitude":0.13,"longitude":29.28001,"population":286403},{"id":518,"name":"Goma","country":"COD","latitude":-1.6788,"longitude":29.22179,"population":144124},{"id":519,"name":"Mzuzu","country":"MWI","latitude":-11.45999,"longitude":34.01998,"population":110201},{"id":520,"name":"Blantyre","country":"MWI","latitude":-15.79001,"longitude":34.98995,"population":584877},{"id":521,"name":"Quetzaltenango","country":"GTM","latitude":14.82996,"longitude":-91.52001,"population":575263},{"id":522,"name":"Banjul","country":"GMB","latitude":13.45388,"longitude":-16.5917,"population":43094},{"id":523,"name":"Faridabad","country":"IND","latitude":28.43333,"longitude":77.31667,"population":1394000},{"id":524,"name":"Srinagar","country":"IND","latitude":34.09997,"longitude":74.81501,"population":1140000},{"id":525,"name":"Vijayawada","country":"IND","latitude":16.51996,"longitude":80.63,"population":1137000},{"id":526,"name":"Thiruvananthapuram","country":"IND","latitude":8.49998,"longitude":76.95002,"population":954000},{"id":527,"name":"Kochi","country":"IND","latitude":10.01501,"longitude":76.22392,"population":1519000},{"id":528,"name":"Cuttack","country":"IND","latitude":20.47,"longitude":85.88994,"population":580000},{"id":529,"name":"Hubli","country":"IND","latitude":15.35998,"longitude":75.12502,"population":890000},{"id":530,"name":"Mangalore","country":"IND","latitude":12.90003,"longitude":74.84999,"population":776632},{"id":531,"name":"Mysore","country":"IND","latitude":12.30998,"longitude":76.66001,"population":887000},{"id":532,"name":"Gulbarga","country":"IND","latitude":17.34996,"longitude":76.82,"population":483615},{"id":533,"name":"Kolhapur","country":"IND","latitude":16.7,"longitude":74.22001,"population":750000},{"id":534,"name":"Nanded","country":"IND","latitude":19.16998,"longitude":77.30003,"population":623708},{"id":535,"name":"Akola","country":"IND","latitude":20.70999,"longitude":77.01002,"population":503502},{"id":536,"name":"Guwahati","country":"IND","latitude":26.16002,"longitude":91.77,"population":983000},{"id":537,"name":"Kayes","country":"COG","latitude":-4.18002,"longitude":13.28001,"population":62521},{"id":538,"name":"Franceville","country":"GAB","latitude":-1.6333,"longitude":13.58329,"population":42967},{"id":539,"name":"Bordeaux","country":"FRA","latitude":44.85001,"longitude":-0.59501,"population":803000},{"id":540,"name":"Marseille","country":"FRA","latitude":43.28998,"longitude":5.37501,"population":1400000},{"id":541,"name":"Le Havre","country":"FRA","latitude":49.50497,"longitude":0.10497,"population":242124},{"id":542,"name":"Gao","country":"MLI","latitude":16.26659,"longitude":-0.05001,"population":116967},{"id":543,"name":"Coihaique","country":"CHL","latitude":-45.57,"longitude":-72.07,"population":45787},{"id":544,"name":"Arica","country":"CHL","latitude":-18.50002,"longitude":-70.28998,"population":185999},{"id":545,"name":"Copiapo","country":"CHL","latitude":-27.36,"longitude":-70.33998,"population":129280},{"id":546,"name":"La Serena","country":"CHL","latitude":-29.9,"longitude":-71.24998,"population":154521},{"id":547,"name":"Los Angeles","country":"CHL","latitude":-37.46,"longitude":-72.35999,"population":145239},{"id":548,"name":"Narsarsuaq","country":"DNK","latitude":61.16659,"longitude":-45.41662,"population":145},{"id":549,"name":"Sisimiut","country":"DNK","latitude":66.95001,"longitude":-53.66661,"population":5227},{"id":550,"name":"Upernavik","country":"DNK","latitude":72.70937,"longitude":-56.14168,"population":1129},{"id":551,"name":"Qaanaaq","country":"DNK","latitude":77.48347,"longitude":-69.33224,"population":616},{"id":552,"name":"Nouadhibou","country":"MRT","latitude":20.9,"longitude":-17.05602,"population":86738},{"id":553,"name":"Kayes","country":"MLI","latitude":14.44998,"longitude":-11.44001,"population":77207},{"id":554,"name":"Ayoun el Atrous","country":"MRT","latitude":16.66659,"longitude":-9.61666,"population":1423},{"id":555,"name":"Segou","country":"MLI","latitude":13.43999,"longitude":-6.26002,"population":122952},{"id":556,"name":"Skopje","country":"MKD","latitude":42.00001,"longitude":21.43346,"population":494087},{"id":557,"name":"Al Jawf","country":"LBY","latitude":24.19998,"longitude":23.28999,"population":24132},{"id":558,"name":"Tmassah","country":"LBY","latitude":26.36665,"longitude":15.80001,"population":500},{"id":559,"name":"Misratah","country":"LBY","latitude":32.37997,"longitude":15.1,"population":386120},{"id":560,"name":"Zuwarah","country":"LBY","latitude":32.93441,"longitude":12.07915,"population":180310},{"id":561,"name":"Kirkuk","country":"IRQ","latitude":35.47224,"longitude":44.39227,"population":601433},{"id":562,"name":"Mosul","country":"IRQ","latitude":36.345,"longitude":43.145,"population":1316000},{"id":563,"name":"An Najaf","country":"IRQ","latitude":32.00033,"longitude":44.33537,"population":665552},{"id":564,"name":"Bahir Dar","country":"ETH","latitude":11.60005,"longitude":37.38329,"population":206748},{"id":565,"name":"Mekele","country":"ETH","latitude":13.49999,"longitude":39.46998,"population":95856},{"id":566,"name":"Dire Dawa","country":"ETH","latitude":9.58999,"longitude":41.86002,"population":252279},{"id":567,"name":"Rovaniemi","country":"FIN","latitude":66.50004,"longitude":25.71594,"population":34781},{"id":568,"name":"Vaasa","country":"FIN","latitude":63.09998,"longitude":21.60001,"population":57014},{"id":569,"name":"Tampere","country":"FIN","latitude":61.5,"longitude":23.75001,"population":259279},{"id":570,"name":"Aqtobe","country":"KAZ","latitude":50.28002,"longitude":57.16999,"population":262457},{"id":571,"name":"Rudny","country":"KAZ","latitude":52.9527,"longitude":63.13004,"population":124000},{"id":572,"name":"Qyzylorda","country":"KAZ","latitude":44.80002,"longitude":65.46499,"population":300000},{"id":573,"name":"Atyrau","country":"KAZ","latitude":47.11269,"longitude":51.92002,"population":182753},{"id":574,"name":"Ekibastuz","country":"KAZ","latitude":51.72998,"longitude":75.31994,"population":127868},{"id":575,"name":"Pavlodar","country":"KAZ","latitude":52.3,"longitude":76.95002,"population":329002},{"id":576,"name":"Semey","country":"KAZ","latitude":50.435,"longitude":80.27504,"population":311353},{"id":577,"name":"Oskemen","country":"KAZ","latitude":49.99004,"longitude":82.61495,"population":319067},{"id":578,"name":"Yazd","country":"IRN","latitude":31.92005,"longitude":54.37,"population":477905},{"id":579,"name":"Ahvaz","country":"IRN","latitude":31.27999,"longitude":48.72001,"population":996000},{"id":580,"name":"Basra","country":"IRQ","latitude":30.51352,"longitude":47.81356,"population":870000},{"id":581,"name":"Bandar-e-Abbas","country":"IRN","latitude":27.20406,"longitude":56.27214,"population":461499},{"id":582,"name":"Hamadan","country":"IRN","latitude":34.79603,"longitude":48.51501,"population":528256},{"id":583,"name":"Tabriz","country":"IRN","latitude":38.08629,"longitude":46.30125,"population":1413000},{"id":584,"name":"Ludhiana","country":"IND","latitude":30.92776,"longitude":75.87226,"population":1649000},{"id":585,"name":"Kota","country":"IND","latitude":25.18,"longitude":75.835,"population":827000},{"id":586,"name":"Jodhpur","country":"IND","latitude":26.29177,"longitude":73.01677,"population":995000},{"id":587,"name":"Shymkent","country":"KAZ","latitude":42.32001,"longitude":69.59502,"population":465392},{"id":588,"name":"Taraz","country":"KAZ","latitude":42.89998,"longitude":71.36499,"population":358153},{"id":589,"name":"Lucknow","country":"IND","latitude":26.85504,"longitude":80.915,"population":2695000},{"id":590,"name":"Saharanpur","country":"IND","latitude":29.97002,"longitude":77.55004,"population":484873},{"id":591,"name":"Ranchi","country":"IND","latitude":23.37001,"longitude":85.33003,"population":1044000},{"id":592,"name":"Bhagalpur","country":"IND","latitude":25.23,"longitude":86.98,"population":361548},{"id":593,"name":"Raipur","country":"IND","latitude":21.23499,"longitude":81.63501,"population":875000},{"id":594,"name":"Jabalpur","country":"IND","latitude":23.17506,"longitude":79.95506,"population":1285000},{"id":595,"name":"Indore","country":"IND","latitude":22.71506,"longitude":75.86502,"population":2026000},{"id":596,"name":"Pondicherry","country":"IND","latitude":11.93499,"longitude":79.83,"population":227411},{"id":597,"name":"Salem","country":"IND","latitude":11.67,"longitude":78.18008,"population":873000},{"id":598,"name":"Tiruchirappalli","country":"IND","latitude":10.81,"longitude":78.68997,"population":951000},{"id":599,"name":"Pointe-Noire","country":"COG","latitude":-4.77001,"longitude":11.88004,"population":659084},{"id":600,"name":"Kankan","country":"GIN","latitude":10.39,"longitude":-9.31001,"population":114009},{"id":601,"name":"Nzerekore","country":"GIN","latitude":7.76,"longitude":-8.82999,"population":168121},{"id":602,"name":"Bouake","country":"CIV","latitude":7.68998,"longitude":-5.03001,"population":567481},{"id":603,"name":"St.-Denis","country":"FRA","latitude":-20.87889,"longitude":55.44808,"population":190047},{"id":604,"name":"Rio Branco","country":"BRA","latitude":-9.96659,"longitude":-67.80001,"population":257642},{"id":605,"name":"S\u00e3o Lu\u00eds","country":"BRA","latitude":-2.51598,"longitude":-44.26599,"population":1038000},{"id":606,"name":"Porto Velho","country":"BRA","latitude":-8.75002,"longitude":-63.90001,"population":306180},{"id":607,"name":"Alvorada","country":"BRA","latitude":-12.47,"longitude":-49.082,"population":10232},{"id":608,"name":"Corumba","country":"BRA","latitude":-19.01601,"longitude":-57.65001,"population":96520},{"id":609,"name":"Belo Horizonte","country":"BRA","latitude":-19.91503,"longitude":-43.915,"population":5575000},{"id":610,"name":"Montes Claros","country":"BRA","latitude":-16.72003,"longitude":-43.86002,"population":332379},{"id":611,"name":"Uberlandia","country":"BRA","latitude":-18.9,"longitude":-48.27998,"population":563536},{"id":612,"name":"Colider","country":"BRA","latitude":-10.81729,"longitude":-55.45058,"population":27139},{"id":613,"name":"Alta Floresta","country":"BRA","latitude":-9.90003,"longitude":-55.90998,"population":40466},{"id":614,"name":"Cuiaba","country":"BRA","latitude":-15.56961,"longitude":-56.08499,"population":806000},{"id":615,"name":"Pelotas","country":"BRA","latitude":-31.75001,"longitude":-52.33002,"population":320674},{"id":616,"name":"Caxias do Sul","country":"BRA","latitude":-29.17999,"longitude":-51.17004,"population":381270},{"id":617,"name":"Ponta Grossa","country":"BRA","latitude":-25.09001,"longitude":-50.16005,"population":292177},{"id":618,"name":"Teresina","country":"BRA","latitude":-5.095,"longitude":-42.78001,"population":907000},{"id":619,"name":"Maceio","country":"BRA","latitude":-9.62,"longitude":-35.72997,"population":1186000},{"id":620,"name":"Vitoria da Conquista","country":"BRA","latitude":-14.85001,"longitude":-40.84,"population":308204},{"id":621,"name":"Barreiras","country":"BRA","latitude":-12.14,"longitude":-45.0,"population":158292},{"id":622,"name":"Vila Velha","country":"BRA","latitude":-20.36761,"longitude":-40.31799,"population":1209091},{"id":623,"name":"Natal","country":"BRA","latitude":-5.78002,"longitude":-35.24,"population":1088000},{"id":624,"name":"Thompson","country":"CAN","latitude":55.74994,"longitude":-97.86662,"population":13727},{"id":625,"name":"Brandon","country":"CAN","latitude":49.83327,"longitude":-99.94998,"population":28418},{"id":626,"name":"Fort Smith","country":"CAN","latitude":60.00002,"longitude":-111.88334,"population":518},{"id":627,"name":"Fort McMurray","country":"CAN","latitude":56.73332,"longitude":-111.38332,"population":21863},{"id":628,"name":"Peace River","country":"CAN","latitude":56.23332,"longitude":-117.28329,"population":5340},{"id":629,"name":"Fort St. John","country":"CAN","latitude":56.24999,"longitude":-120.83328,"population":18776},{"id":630,"name":"Iqaluit","country":"CAN","latitude":63.75046,"longitude":-68.50019,"population":6124},{"id":631,"name":"Cambridge Bay","country":"CAN","latitude":69.11696,"longitude":-105.03332,"population":1477},{"id":632,"name":"Kugluktuk","country":"CAN","latitude":67.79866,"longitude":-115.12535,"population":1302},{"id":633,"name":"Chesterfield Inlet","country":"CAN","latitude":63.33829,"longitude":-90.70008,"population":374},{"id":634,"name":"Arviat","country":"CAN","latitude":61.10859,"longitude":-94.05861,"population":1868},{"id":635,"name":"Taloyoak","country":"CAN","latitude":69.53331,"longitude":-93.53332,"population":774},{"id":636,"name":"Igloolik","country":"CAN","latitude":69.25654,"longitude":-81.79359,"population":1612},{"id":637,"name":"Dawson City","country":"CAN","latitude":64.06664,"longitude":-139.41667,"population":1319},{"id":638,"name":"Timmins","country":"CAN","latitude":48.46659,"longitude":-81.33331,"population":34974},{"id":639,"name":"North Bay","country":"CAN","latitude":46.3,"longitude":-79.44999,"population":50170},{"id":640,"name":"Kuujjuarapik","country":"CAN","latitude":55.2815,"longitude":-77.76583,"population":1243},{"id":641,"name":"Kuujjuaq","country":"CAN","latitude":58.10001,"longitude":-68.4,"population":1273},{"id":642,"name":"Sydney","country":"CAN","latitude":46.06611,"longitude":-60.17998,"population":37538},{"id":643,"name":"Labrador City","country":"CAN","latitude":52.94143,"longitude":-66.91587,"population":10313},{"id":644,"name":"Ebolowa","country":"CMR","latitude":2.90002,"longitude":11.15001,"population":87875},{"id":645,"name":"Bambari","country":"CAF","latitude":5.76196,"longitude":20.6672,"population":62098},{"id":646,"name":"Venice","country":"ITA","latitude":45.43866,"longitude":12.335,"population":270816},{"id":647,"name":"El Calafate","country":"ARG","latitude":-50.33332,"longitude":-72.30002,"population":8000},{"id":648,"name":"San Juan","country":"ARG","latitude":-31.55003,"longitude":-68.51999,"population":447048},{"id":649,"name":"Rawson","country":"ARG","latitude":-43.30001,"longitude":-65.09999,"population":26335},{"id":650,"name":"Neuquen","country":"ARG","latitude":-38.95004,"longitude":-68.05999,"population":242092},{"id":651,"name":"Trinidad","country":"BOL","latitude":-14.83337,"longitude":-64.89998,"population":84259},{"id":652,"name":"Santa Rosa","country":"ARG","latitude":-36.62,"longitude":-64.29999,"population":111424},{"id":653,"name":"San Carlos de Bariloche","country":"ARG","latitude":-41.14996,"longitude":-71.3,"population":95394},{"id":654,"name":"Salta","country":"ARG","latitude":-24.78336,"longitude":-65.41664,"population":512686},{"id":655,"name":"Tucum\u00e1n","country":"ARG","latitude":-26.816,"longitude":-65.21662,"population":830000},{"id":656,"name":"Formosa","country":"ARG","latitude":-26.17284,"longitude":-58.18282,"population":221383},{"id":657,"name":"Santa Fe","country":"ARG","latitude":-31.62387,"longitude":-60.69,"population":489505},{"id":658,"name":"Rosario","country":"ARG","latitude":-32.95113,"longitude":-60.66631,"population":1203000},{"id":659,"name":"Campinas","country":"BRA","latitude":-22.90001,"longitude":-47.10003,"population":2791000},{"id":660,"name":"Sorocaba","country":"BRA","latitude":-23.49,"longitude":-47.46998,"population":563281},{"id":661,"name":"Ribeirao Preto","country":"BRA","latitude":-21.17004,"longitude":-47.82999,"population":551267},{"id":662,"name":"Petrolina","country":"BRA","latitude":-9.38001,"longitude":-40.50997,"population":260985},{"id":663,"name":"Bamenda","country":"CMR","latitude":5.95998,"longitude":10.15002,"population":445299},{"id":664,"name":"Garoua","country":"CMR","latitude":9.30001,"longitude":13.39002,"population":436899},{"id":665,"name":"Herat","country":"AFG","latitude":34.33001,"longitude":62.16999,"population":481009},{"id":666,"name":"Mazar-e Sharif","country":"AFG","latitude":36.69999,"longitude":67.10003,"population":458151},{"id":667,"name":"Battambang","country":"KHM","latitude":13.10001,"longitude":103.20005,"population":154773},{"id":668,"name":"Siem Reap","country":"KHM","latitude":13.36664,"longitude":103.85003,"population":109398},{"id":669,"name":"Malanje","country":"AGO","latitude":-9.54,"longitude":16.34003,"population":125856},{"id":670,"name":"Benguela","country":"AGO","latitude":-12.57826,"longitude":13.40723,"population":151226},{"id":671,"name":"Lubango","country":"AGO","latitude":-14.91001,"longitude":13.49002,"population":125632},{"id":672,"name":"Namibe","country":"AGO","latitude":-15.19004,"longitude":12.16002,"population":132900},{"id":673,"name":"Tarija","country":"BOL","latitude":-21.51669,"longitude":-64.74999,"population":159269},{"id":674,"name":"Bridgetown","country":"BRB","latitude":13.102,"longitude":-59.61653,"population":191152},{"id":675,"name":"Annaba","country":"DZA","latitude":36.92001,"longitude":7.75998,"population":503524},{"id":676,"name":"Parakou","country":"BEN","latitude":9.34001,"longitude":2.62004,"population":188853},{"id":677,"name":"Porto-Novo","country":"BEN","latitude":6.48331,"longitude":2.61663,"population":300000},{"id":678,"name":"Constantine","country":"DZA","latitude":36.35999,"longitude":6.59995,"population":605179},{"id":679,"name":"Brest","country":"BLR","latitude":52.09998,"longitude":23.69999,"population":300715},{"id":680,"name":"Khulna","country":"BGD","latitude":22.83999,"longitude":89.56,"population":1553000},{"id":681,"name":"Francistown","country":"BWA","latitude":-21.17004,"longitude":27.50002,"population":89979},{"id":682,"name":"Mahalapye","country":"BWA","latitude":-23.1,"longitude":26.82001,"population":50744},{"id":683,"name":"Serowe","country":"BWA","latitude":-22.39002,"longitude":26.71004,"population":48573},{"id":684,"name":"Katherine","country":"AUS","latitude":-14.46662,"longitude":132.26659,"population":10141},{"id":685,"name":"Busselton","country":"AUS","latitude":-33.65641,"longitude":115.34866,"population":10214},{"id":686,"name":"Mandurah","country":"AUS","latitude":-32.52348,"longitude":115.74706,"population":73356},{"id":687,"name":"Broome","country":"AUS","latitude":-17.96177,"longitude":122.23077,"population":13218},{"id":688,"name":"Kalgoorlie","country":"AUS","latitude":-30.7354,"longitude":121.46002,"population":36852},{"id":689,"name":"Albany","country":"AUS","latitude":-35.01695,"longitude":117.8916,"population":26445},{"id":690,"name":"Port Hedland","country":"AUS","latitude":-20.3104,"longitude":118.60603,"population":14288},{"id":691,"name":"Karratha","country":"AUS","latitude":-20.73038,"longitude":116.87001,"population":16796},{"id":692,"name":"Geraldton","country":"AUS","latitude":-28.76663,"longitude":114.59997,"population":27258},{"id":693,"name":"Griffith","country":"AUS","latitude":-34.29001,"longitude":146.04002,"population":15455},{"id":694,"name":"Orange","country":"AUS","latitude":-33.28,"longitude":149.09998,"population":39329},{"id":695,"name":"Dubbo","country":"AUS","latitude":-32.25996,"longitude":148.59733,"population":31574},{"id":696,"name":"Armidale","country":"AUS","latitude":-30.51231,"longitude":151.66748,"population":22673},{"id":697,"name":"Broken Hill","country":"AUS","latitude":-31.94995,"longitude":141.43311,"population":17395},{"id":698,"name":"Port Lincoln","country":"AUS","latitude":-34.73324,"longitude":135.86658,"population":13630},{"id":699,"name":"Whyalla","country":"AUS","latitude":-33.02503,"longitude":137.56141,"population":22559},{"id":700,"name":"Portland","country":"AUS","latitude":-38.34,"longitude":141.59,"population":11808},{"id":701,"name":"Bendigo","country":"AUS","latitude":-36.75999,"longitude":144.28002,"population":81657},{"id":702,"name":"Wangaratta","country":"AUS","latitude":-36.36002,"longitude":146.3,"population":14022},{"id":703,"name":"Windorah","country":"AUS","latitude":-25.43324,"longitude":142.6502,"population":158},{"id":704,"name":"Mount Isa","country":"AUS","latitude":-20.72387,"longitude":139.49003,"population":33200},{"id":705,"name":"Rockhampton","country":"AUS","latitude":-23.36391,"longitude":150.52,"population":65850},{"id":706,"name":"Cairns","country":"AUS","latitude":-16.88784,"longitude":145.76333,"population":154225},{"id":707,"name":"Gold Coast","country":"AUS","latitude":-28.0815,"longitude":153.44825,"population":527660},{"id":708,"name":"Devonport","country":"AUS","latitude":-41.19267,"longitude":146.3311,"population":19317},{"id":709,"name":"Bobo Dioulasso","country":"BFA","latitude":11.17998,"longitude":-4.28998,"population":360106},{"id":710,"name":"Rajshahi","country":"BGD","latitude":24.37498,"longitude":88.60502,"population":810000},{"id":711,"name":"Mandalay","country":"MMR","latitude":21.96999,"longitude":96.08503,"population":1300000},{"id":712,"name":"Sittwe","country":"MMR","latitude":20.14,"longitude":92.88,"population":179032},{"id":713,"name":"Bujumbura","country":"BDI","latitude":-3.37609,"longitude":29.36001,"population":331700},{"id":714,"name":"Pago Pago","country":"USA","latitude":-14.27661,"longitude":-170.70665,"population":12576},{"id":715,"name":"Kingstown","country":"VCT","latitude":13.14828,"longitude":-61.21206,"population":49485},{"id":716,"name":"Castries","country":"LCA","latitude":14.00197,"longitude":-61.00001,"population":37963},{"id":717,"name":"Basseterre","country":"KNA","latitude":17.30203,"longitude":-62.71701,"population":21887},{"id":718,"name":"Las Palmas","country":"ESP","latitude":28.09998,"longitude":-15.43,"population":378495},{"id":719,"name":"Berbera","country":"SOL","latitude":10.43555,"longitude":45.01641,"population":242344},{"id":720,"name":"Port Louis","country":"MUS","latitude":-20.16664,"longitude":57.49999,"population":595491},{"id":721,"name":"Gaza","country":"PSE","latitude":31.53,"longitude":34.44502,"population":505700},{"id":722,"name":"Saint George's","country":"GRD","latitude":12.05263,"longitude":-61.74164,"population":33734},{"id":723,"name":"Papeete","country":"FRA","latitude":-17.53336,"longitude":-149.56667,"population":131695},{"id":724,"name":"Manama","country":"BHR","latitude":26.23614,"longitude":50.58305,"population":563920},{"id":725,"name":"Freeport","country":"BHS","latitude":26.53328,"longitude":-78.70001,"population":25383},{"id":726,"name":"Saint John's","country":"ATG","latitude":17.11804,"longitude":-61.85003,"population":35499},{"id":727,"name":"Taichung","country":"TWN","latitude":24.15208,"longitude":120.68167,"population":2629323},{"id":728,"name":"Kozhikode","country":"IND","latitude":11.25044,"longitude":75.76999,"population":953000},{"id":729,"name":"Bhubaneshwar","country":"IND","latitude":20.27043,"longitude":85.82736,"population":844000},{"id":730,"name":"Jamshedpur","country":"IND","latitude":22.78754,"longitude":86.19752,"population":1300000},{"id":731,"name":"Montevideo","country":"URY","latitude":-34.85804,"longitude":-56.17105,"population":1513000},{"id":732,"name":"Helena","country":"USA","latitude":46.59275,"longitude":-112.03529,"population":38725},{"id":733,"name":"Bismarck","country":"USA","latitude":46.80832,"longitude":-100.78332,"population":63871},{"id":734,"name":"Boise","country":"USA","latitude":43.60859,"longitude":-116.22749,"population":338071},{"id":735,"name":"San Jose","country":"USA","latitude":37.29998,"longitude":-121.84999,"population":1668000},{"id":736,"name":"Sacramento","country":"USA","latitude":38.57502,"longitude":-121.47004,"population":1604000},{"id":737,"name":"Las Vegas","country":"USA","latitude":36.21,"longitude":-115.22001,"population":1823000},{"id":738,"name":"Santa Fe","country":"USA","latitude":35.68693,"longitude":-105.93724,"population":92681},{"id":739,"name":"Portland","country":"USA","latitude":45.52002,"longitude":-122.67999,"population":1875000},{"id":740,"name":"Salt Lake City","country":"USA","latitude":40.77502,"longitude":-111.93005,"population":966000},{"id":741,"name":"Cheyenne","country":"USA","latitude":41.14001,"longitude":-104.81971,"population":72927},{"id":742,"name":"Des Moines","country":"USA","latitude":41.57998,"longitude":-93.61998,"population":380655},{"id":743,"name":"Omaha","country":"USA","latitude":41.24,"longitude":-96.00999,"population":877110},{"id":744,"name":"Oklahoma City","country":"USA","latitude":35.47004,"longitude":-97.51868,"population":788000},{"id":745,"name":"Pierre","country":"USA","latitude":44.36834,"longitude":-100.35055,"population":13879},{"id":746,"name":"San Antonio","country":"USA","latitude":29.48733,"longitude":-98.50731,"population":1473000},{"id":747,"name":"San Cristobal","country":"VEN","latitude":7.77,"longitude":-72.24997,"population":438798},{"id":748,"name":"Valencia","country":"VEN","latitude":10.22998,"longitude":-67.98002,"population":1770000},{"id":749,"name":"Jackson","country":"USA","latitude":32.29882,"longitude":-90.185,"population":250902},{"id":750,"name":"Raleigh","country":"USA","latitude":35.81878,"longitude":-78.64469,"population":1163515},{"id":751,"name":"Cleveland","country":"USA","latitude":41.46999,"longitude":-81.695,"population":1890000},{"id":752,"name":"Cincinnati","country":"USA","latitude":39.16188,"longitude":-84.45692,"population":1636000},{"id":753,"name":"Nashville","country":"USA","latitude":36.16997,"longitude":-86.77998,"population":877000},{"id":754,"name":"Memphis","country":"USA","latitude":35.11999,"longitude":-90.0,"population":1081000},{"id":755,"name":"Norfolk","country":"USA","latitude":36.84996,"longitude":-76.28001,"population":1047869},{"id":756,"name":"Milwaukee","country":"USA","latitude":43.05266,"longitude":-87.91997,"population":1388000},{"id":757,"name":"Buffalo","country":"USA","latitude":42.87998,"longitude":-78.88,"population":1016000},{"id":758,"name":"Pittsburgh","country":"USA","latitude":40.43,"longitude":-79.99999,"population":1838000},{"id":759,"name":"Ciudad Guayana","country":"VEN","latitude":8.37002,"longitude":-62.61999,"population":746535},{"id":760,"name":"Lome","country":"TGO","latitude":6.13194,"longitude":1.22276,"population":1452000},{"id":761,"name":"Tunis","country":"TUN","latitude":36.80278,"longitude":10.17968,"population":2412500},{"id":762,"name":"Kodiak","country":"USA","latitude":57.79,"longitude":-152.40699,"population":9461},{"id":763,"name":"Cold Bay","country":"USA","latitude":55.2,"longitude":-162.71509,"population":200},{"id":764,"name":"Bethel","country":"USA","latitude":60.7933,"longitude":-161.7558,"population":6228},{"id":765,"name":"Point Hope","country":"USA","latitude":68.34773,"longitude":-166.80802,"population":461},{"id":766,"name":"Barrow","country":"USA","latitude":71.29057,"longitude":-156.78858,"population":4336},{"id":767,"name":"Nome","country":"USA","latitude":64.5061,"longitude":-165.40637,"population":3485},{"id":768,"name":"Valdez","country":"USA","latitude":61.136,"longitude":-146.34829,"population":4036},{"id":769,"name":"Juneau","country":"USA","latitude":58.31413,"longitude":-134.42,"population":30711},{"id":770,"name":"Fairbanks","country":"USA","latitude":64.83698,"longitude":-147.71066,"population":56993},{"id":771,"name":"Prudhoe Bay","country":"USA","latitude":70.29218,"longitude":-148.66936,"population":2500},{"id":772,"name":"Sevastapol","country":"UKR","latitude":44.59998,"longitude":33.46498,"population":379200},{"id":773,"name":"Abu Dhabi","country":"ARE","latitude":24.46668,"longitude":54.36659,"population":603492},{"id":774,"name":"Ashgabat","country":"TKM","latitude":37.94999,"longitude":58.3833,"population":727700},{"id":775,"name":"Samarqand","country":"UZB","latitude":39.67002,"longitude":66.945,"population":708000},{"id":776,"name":"Lusaka","country":"ZMB","latitude":-15.41664,"longitude":28.28333,"population":1328000},{"id":777,"name":"Harare","country":"ZWE","latitude":-17.81779,"longitude":31.04471,"population":1572000},{"id":778,"name":"Bulawayo","country":"ZWE","latitude":-20.17,"longitude":28.58,"population":699385},{"id":779,"name":"Dili","country":"TLS","latitude":-8.55939,"longitude":125.57946,"population":234331},{"id":780,"name":"Port Vila","country":"VUT","latitude":-17.73335,"longitude":168.31664,"population":44040},{"id":781,"name":"Tegucigalpa","country":"HND","latitude":14.10204,"longitude":-87.21753,"population":946000},{"id":782,"name":"Georgetown","country":"GUY","latitude":6.80197,"longitude":-58.16703,"population":264350},{"id":783,"name":"Reykjav\u00edk","country":"ISL","latitude":64.15002,"longitude":-21.95001,"population":166212},{"id":784,"name":"Port-au-Prince","country":"HTI","latitude":18.54102,"longitude":-72.33603,"population":1998000},{"id":785,"name":"Glasgow","country":"GBR","latitude":55.8744,"longitude":-4.25071,"population":1160000},{"id":786,"name":"Kampala","country":"UGA","latitude":0.31666,"longitude":32.58332,"population":1420000},{"id":787,"name":"Aden","country":"YEM","latitude":12.77972,"longitude":45.00949,"population":1000000},{"id":788,"name":"Paramaribo","country":"SUR","latitude":5.83503,"longitude":-55.16703,"population":254169},{"id":789,"name":"Seville","country":"ESP","latitude":37.40502,"longitude":-5.98001,"population":1212045},{"id":790,"name":"Zinder","country":"NER","latitude":13.8,"longitude":8.98332,"population":230358},{"id":791,"name":"Niamey","country":"NER","latitude":13.51671,"longitude":2.11666,"population":915000},{"id":792,"name":"Port Sudan","country":"SDN","latitude":19.61579,"longitude":37.21643,"population":489725},{"id":793,"name":"Dushanbe","country":"TJK","latitude":38.56004,"longitude":68.77388,"population":1086244},{"id":794,"name":"Cusco","country":"PER","latitude":-13.52503,"longitude":-71.97215,"population":361182},{"id":795,"name":"Tacna","country":"PER","latitude":-18.0,"longitude":-70.25001,"population":280098},{"id":796,"name":"Trujillo","country":"PER","latitude":-8.12004,"longitude":-79.01997,"population":765171},{"id":797,"name":"Ica","country":"PER","latitude":-14.06799,"longitude":-75.72549,"population":279420},{"id":798,"name":"Asuncion","country":"PRY","latitude":-25.2964,"longitude":-57.64151,"population":1870000},{"id":799,"name":"Managua","country":"NIC","latitude":12.15302,"longitude":-86.26849,"population":920000},{"id":800,"name":"Freetown","country":"SLE","latitude":8.47001,"longitude":-13.23422,"population":827000},{"id":801,"name":"Agadez","country":"NER","latitude":16.99587,"longitude":7.98281,"population":117770},{"id":802,"name":"Niyala","country":"SDN","latitude":12.05997,"longitude":24.88999,"population":392373},{"id":803,"name":"Wau","country":"SSD","latitude":7.69998,"longitude":27.98996,"population":127384},{"id":804,"name":"Dongola","country":"SDN","latitude":19.16659,"longitude":30.4833,"population":26404},{"id":805,"name":"Kassala","country":"SDN","latitude":15.45997,"longitude":36.39002,"population":401477},{"id":806,"name":"Troms\u00f8","country":"NOR","latitude":69.63508,"longitude":18.99203,"population":52436},{"id":807,"name":"Trondheim","country":"NOR","latitude":63.41666,"longitude":10.41667,"population":147139},{"id":808,"name":"Bergen","country":"NOR","latitude":60.391,"longitude":5.32452,"population":213585},{"id":809,"name":"Islamabad","country":"PAK","latitude":33.7,"longitude":73.16663,"population":780000},{"id":810,"name":"Multan","country":"PAK","latitude":30.19998,"longitude":71.45501,"population":1522000},{"id":811,"name":"Hyderabad","country":"PAK","latitude":25.37999,"longitude":68.37499,"population":1459000},{"id":812,"name":"Peshawar","country":"PAK","latitude":34.00502,"longitude":71.535,"population":1303000},{"id":813,"name":"Kathmandu","country":"NPL","latitude":27.71669,"longitude":85.31664,"population":895000},{"id":814,"name":"Nacala","country":"MOZ","latitude":-14.51861,"longitude":40.71502,"population":224795},{"id":815,"name":"Bloemfontein","country":"ZAF","latitude":-29.11999,"longitude":26.22991,"population":463064},{"id":816,"name":"Pretoria","country":"ZAF","latitude":-25.70692,"longitude":28.22943,"population":1338000},{"id":817,"name":"Port Moresby","country":"PNG","latitude":-9.46471,"longitude":147.1925,"population":283733},{"id":818,"name":"Honiara","country":"SLB","latitude":-9.43799,"longitude":159.94977,"population":76328},{"id":819,"name":"Panama City","country":"PAN","latitude":8.96802,"longitude":-79.53304,"population":1281000},{"id":820,"name":"Fez","country":"MAR","latitude":34.0546,"longitude":-5.00038,"population":1002000},{"id":821,"name":"Rabat","country":"MAR","latitude":34.0253,"longitude":-6.83613,"population":1705000},{"id":822,"name":"Marrakesh","country":"MAR","latitude":31.62999,"longitude":-7.99999,"population":872000},{"id":823,"name":"Chisinau","country":"MDA","latitude":47.00502,"longitude":28.85771,"population":688134},{"id":824,"name":"Beira","country":"MOZ","latitude":-19.82004,"longitude":34.87001,"population":530604},{"id":825,"name":"Port Elizabeth","country":"ZAF","latitude":-33.97003,"longitude":25.60003,"population":1021000},{"id":826,"name":"Maputo","country":"MOZ","latitude":-25.95528,"longitude":32.58916,"population":1446000},{"id":827,"name":"Tomsk","country":"RUS","latitude":56.49499,"longitude":84.97501,"population":535479},{"id":828,"name":"Anadyr","country":"RUS","latitude":64.73699,"longitude":177.475,"population":10332},{"id":829,"name":"Murmansk","country":"RUS","latitude":68.96999,"longitude":33.10004,"population":319263},{"id":830,"name":"Archangel","country":"RUS","latitude":64.57496,"longitude":40.54501,"population":356051},{"id":831,"name":"Nizhny Novgorod","country":"RUS","latitude":56.33301,"longitude":44.00009,"population":1278000},{"id":832,"name":"Volgograd","country":"RUS","latitude":48.71001,"longitude":44.49996,"population":984000},{"id":833,"name":"Ufa","country":"RUS","latitude":54.78997,"longitude":56.04003,"population":1018000},{"id":834,"name":"Yekaterinburg","country":"RUS","latitude":56.85003,"longitude":60.59996,"population":1313000},{"id":835,"name":"Samara","country":"RUS","latitude":53.19501,"longitude":50.1513,"population":1137000},{"id":836,"name":"Kazan","country":"RUS","latitude":55.74994,"longitude":49.12634,"population":1115000},{"id":837,"name":"Surgut","country":"RUS","latitude":61.25994,"longitude":73.42502,"population":400000},{"id":838,"name":"Barnaul","country":"RUS","latitude":53.355,"longitude":83.74501,"population":599579},{"id":839,"name":"Novosibirsk","country":"RUS","latitude":55.02996,"longitude":82.96004,"population":1389000},{"id":840,"name":"Mogadishu","country":"SOM","latitude":2.06668,"longitude":45.36668,"population":1100000},{"id":841,"name":"Muscat","country":"OMN","latitude":23.61332,"longitude":58.59331,"population":734697},{"id":842,"name":"Colombo","country":"LKA","latitude":6.93197,"longitude":79.85775,"population":217000},{"id":843,"name":"Cebu","country":"PHL","latitude":10.31998,"longitude":123.90008,"population":815000},{"id":844,"name":"Iloilo","country":"PHL","latitude":10.70504,"longitude":122.54502,"population":387681},{"id":845,"name":"Davao","country":"PHL","latitude":7.11002,"longitude":125.63,"population":1402000},{"id":846,"name":"Bratsk","country":"RUS","latitude":56.157,"longitude":101.61503,"population":246348},{"id":847,"name":"Irkutsk","country":"RUS","latitude":52.31997,"longitude":104.24505,"population":586695},{"id":848,"name":"Krasnoyarsk","country":"RUS","latitude":56.01398,"longitude":92.866,"population":925000},{"id":849,"name":"Dickson","country":"RUS","latitude":73.50697,"longitude":80.5451,"population":1113},{"id":850,"name":"Chita","country":"RUS","latitude":52.05503,"longitude":113.465,"population":308500},{"id":851,"name":"Vladivostok","country":"RUS","latitude":43.13001,"longitude":131.91003,"population":587022},{"id":852,"name":"Nizhneyansk","country":"RUS","latitude":71.43333,"longitude":136.06662,"population":400},{"id":853,"name":"Yakutsk","country":"RUS","latitude":62.03496,"longitude":129.73502,"population":235600},{"id":854,"name":"Tiksi","country":"RUS","latitude":71.62689,"longitude":128.83497,"population":5700},{"id":855,"name":"Magadan","country":"RUS","latitude":59.57498,"longitude":150.81001,"population":95282},{"id":856,"name":"Tijuana","country":"MEX","latitude":32.50002,"longitude":-117.08,"population":1553000},{"id":857,"name":"Chihuahua","country":"MEX","latitude":28.64498,"longitude":-106.08498,"population":793000},{"id":858,"name":"Mazatlan","country":"MEX","latitude":23.2211,"longitude":-106.42,"population":368204},{"id":859,"name":"Tampico","country":"MEX","latitude":22.30002,"longitude":-97.87001,"population":859419},{"id":860,"name":"Acapulco","country":"MEX","latitude":16.84999,"longitude":-99.91598,"population":715584},{"id":861,"name":"Veracruz","country":"MEX","latitude":19.17734,"longitude":-96.15998,"population":578963},{"id":862,"name":"Tuxtla Gutierrez","country":"MEX","latitude":16.75,"longitude":-93.15001,"population":481128},{"id":863,"name":"Cancun","country":"MEX","latitude":21.16996,"longitude":-86.83001,"population":542043},{"id":864,"name":"Merida","country":"MEX","latitude":20.96664,"longitude":-89.61663,"population":965000},{"id":865,"name":"Enugu","country":"NGA","latitude":6.45003,"longitude":7.5,"population":688862},{"id":866,"name":"Sokoto","country":"NGA","latitude":13.06002,"longitude":5.24003,"population":732178},{"id":867,"name":"Perm","country":"RUS","latitude":57.99996,"longitude":56.24999,"population":997000},{"id":868,"name":"Erdenet","country":"MNG","latitude":49.0533,"longitude":104.11834,"population":79647},{"id":869,"name":"Ulaanbaatar","country":"MNG","latitude":47.91667,"longitude":106.91662,"population":885000},{"id":870,"name":"Wellington","country":"NZL","latitude":-41.29997,"longitude":174.78327,"population":393400},{"id":871,"name":"Mbeya","country":"TZA","latitude":-8.89001,"longitude":33.43004,"population":291649},{"id":872,"name":"Windhoek","country":"NAM","latitude":-22.57001,"longitude":17.08355,"population":268132},{"id":873,"name":"Grootfontein","country":"NAM","latitude":-19.56662,"longitude":18.11656,"population":24099},{"id":874,"name":"Zanzibar","country":"TZA","latitude":-6.16,"longitude":39.20003,"population":403658},{"id":875,"name":"Christchurch","country":"NZL","latitude":-43.53503,"longitude":172.63002,"population":363926},{"id":876,"name":"Valencia","country":"ESP","latitude":39.48502,"longitude":-0.40001,"population":808000},{"id":877,"name":"Palana","country":"RUS","latitude":59.084,"longitude":159.95002,"population":3671},{"id":878,"name":"Petropavlovsk Kamchatskiy","country":"RUS","latitude":53.06199,"longitude":158.62302,"population":187282},{"id":879,"name":"Abuja","country":"NGA","latitude":9.08333,"longitude":7.53333,"population":1576000},{"id":880,"name":"Padang","country":"IDN","latitude":-0.96001,"longitude":100.36001,"population":855000},{"id":881,"name":"Bissau","country":"GNB","latitude":11.86502,"longitude":-15.59836,"population":403339},{"id":882,"name":"Palermo","country":"ITA","latitude":38.12502,"longitude":13.35003,"population":863000},{"id":883,"name":"Amman","country":"JOR","latitude":31.95003,"longitude":35.9333,"population":1060000},{"id":884,"name":"Vilnius","country":"LTU","latitude":54.68337,"longitude":25.31664,"population":542366},{"id":885,"name":"Riga","country":"LVA","latitude":56.95002,"longitude":24.09997,"population":742572},{"id":886,"name":"Bishkek","country":"KGZ","latitude":42.87308,"longitude":74.5852,"population":837000},{"id":887,"name":"Jiayuguan","country":"CHN","latitude":39.82001,"longitude":98.29998,"population":148279},{"id":888,"name":"Xining","country":"CHN","latitude":36.62,"longitude":101.77,"population":1048000},{"id":889,"name":"Guilin","country":"CHN","latitude":25.27999,"longitude":110.28003,"population":987000},{"id":890,"name":"Huainan","country":"CHN","latitude":32.62998,"longitude":116.97998,"population":1451000},{"id":891,"name":"Shantou","country":"CHN","latitude":23.37001,"longitude":116.67003,"population":1601000},{"id":892,"name":"Tarakan","country":"IDN","latitude":3.30002,"longitude":117.63302,"population":193069},{"id":893,"name":"Mombasa","country":"KEN","latitude":-4.04003,"longitude":39.68992,"population":882000},{"id":894,"name":"Maseru","country":"LSO","latitude":-29.31667,"longitude":27.48327,"population":361324},{"id":895,"name":"Antananarivo","country":"MDG","latitude":-18.91664,"longitude":47.51662,"population":1697000},{"id":896,"name":"Semarang","country":"IDN","latitude":-6.96662,"longitude":110.42002,"population":1396000},{"id":897,"name":"Palembang","country":"IDN","latitude":-2.98004,"longitude":104.75003,"population":1749000},{"id":898,"name":"Bandjarmasin","country":"IDN","latitude":-3.32999,"longitude":114.58008,"population":603576},{"id":899,"name":"Ujungpandang","country":"IDN","latitude":-5.13996,"longitude":119.43203,"population":1262000},{"id":900,"name":"Lyon","country":"FRA","latitude":45.77001,"longitude":4.83003,"population":1423000},{"id":901,"name":"Quito","country":"ECU","latitude":-0.21499,"longitude":-78.50005,"population":1701000},{"id":902,"name":"San Jose","country":"CRI","latitude":9.93501,"longitude":-84.08405,"population":1284000},{"id":903,"name":"San Salvador","country":"SLV","latitude":13.71,"longitude":-89.20304,"population":1433000},{"id":904,"name":"Kingston","country":"JAM","latitude":17.97708,"longitude":-76.76743,"population":937700},{"id":905,"name":"Cartagena","country":"COL","latitude":10.39974,"longitude":-75.51439,"population":887000},{"id":906,"name":"Mitu","country":"COL","latitude":1.19831,"longitude":-70.17361,"population":5917},{"id":907,"name":"Bumba","country":"COD","latitude":2.18998,"longitude":22.45996,"population":160539},{"id":908,"name":"Ndjamena","country":"TCD","latitude":12.1131,"longitude":15.04915,"population":989000},{"id":909,"name":"Abeche","country":"TCD","latitude":13.83999,"longitude":20.82998,"population":158317},{"id":910,"name":"Malabo","country":"GNQ","latitude":3.75002,"longitude":8.78328,"population":155963},{"id":911,"name":"Luxor","country":"EGY","latitude":25.70002,"longitude":32.65004,"population":609248},{"id":912,"name":"Asmara","country":"ERI","latitude":15.33334,"longitude":38.93332,"population":620802},{"id":913,"name":"Zagreb","country":"HRV","latitude":45.80001,"longitude":15.99999,"population":722526},{"id":914,"name":"Tallinn","country":"EST","latitude":59.43388,"longitude":24.72804,"population":394024},{"id":915,"name":"Lhasa","country":"CHN","latitude":29.64502,"longitude":91.10001,"population":219599},{"id":916,"name":"Hami","country":"CHN","latitude":42.82698,"longitude":93.515,"population":300848},{"id":917,"name":"Hotan","country":"CHN","latitude":37.09971,"longitude":79.92695,"population":261730},{"id":918,"name":"Kashgar","country":"CHN","latitude":39.47634,"longitude":75.96993,"population":543914},{"id":919,"name":"Yinchuan","country":"CHN","latitude":38.46797,"longitude":106.27304,"population":991000},{"id":920,"name":"Pingxiang","country":"CHN","latitude":27.62001,"longitude":113.85004,"population":961000},{"id":921,"name":"Nagasaki","country":"JPN","latitude":32.76499,"longitude":129.88503,"population":435455},{"id":922,"name":"Qiqihar","country":"CHN","latitude":47.34498,"longitude":123.98999,"population":1641000},{"id":923,"name":"Kikwit","country":"COD","latitude":-5.03004,"longitude":18.85,"population":637736},{"id":924,"name":"Matadi","country":"COD","latitude":-5.81661,"longitude":13.45002,"population":245862},{"id":925,"name":"Kolwezi","country":"COD","latitude":-10.71672,"longitude":25.47244,"population":418000},{"id":926,"name":"Lubumbashi","country":"COD","latitude":-11.68002,"longitude":27.48002,"population":1352000},{"id":927,"name":"Lilongwe","country":"MWI","latitude":-13.9833,"longitude":33.7833,"population":646750},{"id":928,"name":"Guatemala","country":"GTM","latitude":14.62113,"longitude":-90.52697,"population":1024000},{"id":929,"name":"Cayenne","country":"FRA","latitude":4.93299,"longitude":-52.33002,"population":61550},{"id":930,"name":"Libreville","country":"GAB","latitude":0.38539,"longitude":9.45797,"population":578156},{"id":931,"name":"Vishakhapatnam","country":"IND","latitude":17.73001,"longitude":83.30498,"population":1529000},{"id":932,"name":"Suva","country":"FJI","latitude":-18.13302,"longitude":178.44171,"population":175399},{"id":933,"name":"Port-Gentil","country":"GAB","latitude":-0.72002,"longitude":8.78002,"population":116836},{"id":934,"name":"Timbuktu","country":"MLI","latitude":16.76659,"longitude":-3.0166,"population":68872},{"id":935,"name":"Punta Arenas","country":"CHL","latitude":-53.16499,"longitude":-70.94,"population":117430},{"id":936,"name":"Iquique","country":"CHL","latitude":-20.24999,"longitude":-70.12997,"population":227499},{"id":937,"name":"Antofagasta","country":"CHL","latitude":-23.64999,"longitude":-70.4,"population":309832},{"id":938,"name":"Valparaiso","country":"CHL","latitude":-33.04776,"longitude":-71.62101,"population":854000},{"id":939,"name":"Valdivia","country":"CHL","latitude":-39.795,"longitude":-73.24502,"population":159599},{"id":940,"name":"Concepcion","country":"CHL","latitude":-36.83001,"longitude":-73.05002,"population":889725},{"id":941,"name":"Puerto Montt","country":"CHL","latitude":-41.46999,"longitude":-72.92998,"population":174629},{"id":942,"name":"Nuuk","country":"DNK","latitude":64.19828,"longitude":-51.73266,"population":14798},{"id":943,"name":"Nouakchott","country":"MRT","latitude":18.08643,"longitude":-15.97534,"population":742144},{"id":944,"name":"Bamako","country":"MLI","latitude":12.65001,"longitude":-8.00004,"population":1494000},